20231028T123921755921,$IIDPT,2.58,1.09,*6B
20231028T123921788066,$IIGLL,,,,,,V,N*73
20231028T123921804170,$IIZDA,,,,,,*5F
20231028T123921821543,$IIGSA,A,1,05,13,15,18,20,23,24,29,30,44,46,48,1.15,0.66,0.95,*3B
20231028T123921837688,$GPGSV,5,1,18,05,44,062,40,13,58,062,45,15,77,205,44,18,48,314,46*79
20231028T123922790084,$IIGLL,,,,,,V,N*73
20231028T123922888835,$GPGSV,5,1,18,05,44,062,42,13,58,062,47,15,77,205,47,18,48,314,46*7A
20231028T123922905510,$IIGSA,A,1,05,13,15,18,20,23,24,29,30,44,46,48,1.15,0.66,0.95,*3B
20231028T123923212797,$IIDPT,2.62,1.09,*62
20231028T123923256995,$IIZDA,123921.299,28,10,2023,-01,59*61
20231028T123923856456,$IIGLL,3926.8635,N,07602.94164,W,123921.899,A,D*60
20231028T123923890222,$GPGSV,5,1,18,05,44,062,37,13,58,062,41,15,77,205,41,18,48,314,42*7C
20231028T123923907873,$IIGSA,A,1,05,13,15,18,20,23,24,29,30,44,46,48,1.15,0.66,0.95,*3B
20231028T123924219845,$IIDPT,2.62,1.09,*62
20231028T123924257433,$IIZDA,123922.299,28,10,2023,-01,59*62
20231028T123924859174,$IIGLL,3926.8635,N,07602.94288,W,123922.899,A,D*62
20231028T123924891399,$GPGSV,5,1,18,05,44,062,37,13,58,062,41,15,77,205,41,18,48,314,42*7C
20231028T123924909008,$IIGSA,A,1,05,13,15,18,20,23,24,29,30,44,46,48,1.15,0.66,0.95,*3B
20231028T123925226771,$IIDPT,2.64,1.09,*64
20231028T123925259600,$IIZDA,123923.299,28,10,2023,-01,59*63
20231028T123925889205,$IIGLL,,,,,,V,N*73
20231028T123925963521,$IIGSA,A,1,05,13,15,18,20,23,24,29,30,44,46,48,1.15,0.66,0.95,*3B
20231028T123926229866,$IIDPT,2.64,1.09,*64
20231028T123926626191,$IIZDA,,,,,,*5F
20231028T123926883610,$GPGSV,5,1,18,05,44,062,40,13,58,062,45,15,77,205,44,18,48,314,45*7A
20231028T123926901793,$IIGLL,,,,,,V,N*73
20231028T123927627647,$IIZDA,,,,,,*5F
20231028T123927884003,$GPGSV,5,1,18,05,44,062,39,13,58,062,42,15,77,205,42,18,48,314,42*72
20231028T123927902054,$IIGSA,A,1,05,13,15,18,20,23,24,29,30,44,46,48,1.15,0.66,0.95,*3B
20231028T123927927539,$IIGLL,,,,,,V,N*73
20231028T123928232522,$IIDPT,2.58,1.09,*6B
20231028T123928628476,$IIZDA,,,,,,*5F
20231028T123928885565,$GPGSV,5,1,18,05,44,062,39,13,58,062,42,15,77,205,42,18,48,314,42*72
20231028T123928903513,$IIGSA,A,1,05,13,15,18,20,23,24,29,30,44,46,48,1.15,0.66,0.95,*3B
20231028T123928929324,$IIGLL,,,,,,V,N*73
20231028T123929248686,$IIDPT,2.66,1.09,*66
20231028T123929645085,$IIZDA,,,,,,*5F
20231028T123929886421,$GPGSV,5,1,18,05,44,062,40,13,58,062,45,15,77,205,43,18,48,314,44*7C
20231028T123929903820,$IIGSA,A,1,05,13,15,18,20,23,24,29,30,44,46,48,1.15,0.66,0.95,*3B
20231028T123929961973,$IIGLL,3926.86368,N,07602.94989,W,,V,N*51
20231028T123930250148,$IIDPT,2.66,1.09,*66
20231028T123930645559,$IIZDA,,,,,,*5F
20231028T123930919706,$GPGSV,5,1,18,05,44,062,40,13,58,062,45,15,77,205,43,18,48,314,44*7C
20231028T123930937684,$IIGSA,A,1,05,13,15,18,20,23,24,29,30,44,46,48,1.15,0.66,0.95,*3B
20231028T123930964618,$IIGLL,3926.86368,N,07602.95066,W,,V,N*58
20231028T123931251787,$IIDPT,2.64,1.09,*64
20231028T123931646341,$IIZDA,,,,,,*5F
20231028T123931953262,$IIGSA,A,1,05,13,15,18,20,23,24,29,30,44,46,48,1.15,0.66,0.95,*3B
20231028T123931981253,$IIGLL,,,,,,V,N*73
20231028T123932254640,$IIDPT,2.68,1.09,*68
20231028T123932647812,$IIZDA,,,,,,*5F
20231028T123932874668,$GPGSV,5,1,18,05,44,062,39,13,58,062,44,15,77,205,43,18,48,314,43*74
20231028T123932964878,$IIGSA,A,1,05,13,15,18,20,23,24,29,30,44,46,48,1.15,0.66,0.95,*3B
20231028T123932981669,$IIGLL,,,,,,V,N*73
20231028T123933270808,$IIDPT,2.62,1.09,*62
20231028T123933662890,$IIZDA,,,,,,*5F
20231028T123933876759,$GPGSV,5,1,18,05,44,062,38,13,58,062,43,15,77,205,41,18,48,314,42*71
20231028T123933993186,$IIGLL,,,,,,V,N*73
20231028T123934272349,$IIDPT,2.7,1.09,*51
20231028T123934665538,$IIZDA,,,,,,*5F
20231028T123934877799,$GPGSV,5,1,18,05,44,062,38,13,58,062,43,15,77,205,41,18,48,314,42*71
20231028T123934900384,$IIGSA,A,1,05,13,15,18,20,23,24,29,30,44,46,48,1.15,0.66,0.95,*3B
20231028T123934993362,$IIGLL,,,,,,V,N*73
20231028T123935273495,$IIDPT,2.71,1.09,*60
20231028T123935681824,$IIZDA,,,,,,*5F
20231028T123935880514,$GPGSV,5,1,18,05,44,062,38,13,58,062,43,15,77,205,41,18,48,314,42*71
20231028T123935900749,$IIGSA,A,1,05,13,15,18,20,23,24,29,30,44,46,48,1.15,0.66,0.95,*3B
20231028T123935993458,$IIGLL,,,,,,V,N*73
20231028T123936292192,$IIDPT,2.71,1.09,*60
20231028T123936682660,$IIZDA,,,,,,*5F
20231028T123936958544,$IIGSA,A,1,05,13,15,18,20,23,24,29,30,44,46,48,1.15,0.66,0.95,*3B
20231028T123937062591,$IIGLL,3926.86406,N,07602.9591,W,,V,N*6F
20231028T123937301417,$IIDPT,2.73,1.09,*62
20231028T123937684955,$IIZDA,,,,,,*5F
20231028T123937882222,$GPGSV,5,1,18,05,44,062,43,13,58,062,48,15,77,205,46,18,48,314,47*74
20231028T123937963410,$IIGSA,A,1,05,13,15,18,20,23,24,29,30,44,46,48,1.15,0.66,0.95,*3B
20231028T123938086130,$IIGLL,,,,,,V,N*73
20231028T123938305441,$IIDPT,2.74,1.09,*65
20231028T123938687806,$IIZDA,,,,,,*5F
20231028T123938883604,$GPGSV,5,1,18,05,44,062,43,13,58,062,48,15,77,205,46,18,48,314,47*74
20231028T123939159684,$IIGLL,3926.86406,N,07602.96179,W,,V,N*5B
20231028T123939701590,$IIZDA,,,,,,*5F
20231028T123939883455,$IIGSA,A,1,05,13,15,18,20,23,24,29,30,44,46,48,1.15,0.66,0.95,*3B
20231028T123940160209,$IIGLL,3926.86406,N,07602.96294,W,,V,N*5B
20231028T123940307360,$IIDPT,2.75,1.09,*64
20231028T123940704487,$IIZDA,,,,,,*5F
20231028T123940885587,$GPGSV,5,1,18,05,44,062,40,13,58,062,46,15,77,205,43,18,48,314,44*7F
20231028T123940905097,$IIGSA,A,1,05,13,15,18,20,23,24,29,30,44,46,48,1.15,0.66,0.95,*3B
20231028T123941181422,$IIGLL,,,,,,V,N*73
20231028T123941323961,$IIDPT,2.69,1.09,*69
20231028T123941707655,$IIZDA,,,,,,*5F
20231028T123941886646,$GPGSV,5,1,18,05,44,062,41,13,58,062,46,15,77,205,44,18,48,314,45*78
20231028T123941907021,$IIGSA,A,1,05,13,15,18,20,23,24,29,30,44,46,48,1.15,0.66,0.95,*3B
20231028T123942258742,$IIGLL,3926.86426,N,07602.96602,W,,V,N*52
20231028T123942325107,$IIDPT,2.78,1.09,*69
20231028T123942723029,$IIZDA,,,,,,*5F
20231028T123942888892,$GPGSV,5,1,18,05,44,062,41,13,58,062,46,15,77,205,44,18,48,314,45*78
20231028T123942908342,$IIGSA,A,1,05,13,15,18,20,23,24,29,30,44,46,48,1.15,0.66,0.95,*3B
20231028T123943260559,$IIGLL,3926.86426,N,07602.96717,W,,V,N*57
20231028T123943326676,$IIDPT,2.77,1.09,*66
20231028T123943723078,$IIZDA,,,,,,*5F
20231028T123943951571,$IIGSA,A,1,05,13,15,18,20,23,24,29,30,44,46,48,1.15,0.66,0.95,*3B
20231028T123944293252,$IIGLL,,,,,,V,N*73
20231028T123944328578,$IIDPT,2.85,1.09,*6B
20231028T123944726104,$IIZDA,,,,,,*5F
20231028T123944876487,$GPGSV,5,1,18,05,44,062,40,13,58,062,46,15,77,205,43,18,48,314,45*7E
20231028T123944961091,$IIGSA,A,1,05,13,15,18,20,23,24,29,30,44,46,48,1.15,0.66,0.95,*3B
20231028T123945345007,$IIDPT,2.83,1.09,*6D
20231028T123945362741,$IIGLL,3926.86464,N,07602.96986,W,,V,N*57
20231028T123945728251,$IIZDA,,,,,,*5F
20231028T123945876899,$GPGSV,5,1,18,05,44,062,42,13,58,062,48,15,77,205,44,18,48,314,45*75
20231028T123945962844,$IIGSA,A,1,05,13,15,18,20,23,24,29,30,44,46,48,1.15,0.66,0.95,*3B
20231028T123946351400,$IIDPT,2.83,1.09,*6D
20231028T123946378966,$IIGLL,3926.86464,N,07602.97139,W,,V,N*5A
20231028T123946746334,$IIZDA,,,,,,*5F
20231028T123946877795,$GPGSV,5,1,18,05,44,062,42,13,58,062,48,15,77,205,44,18,48,314,45*75
20231028T123947364282,$IIDPT,2.83,1.09,*6D
20231028T123947393952,$IIGLL,,,,,,V,N*73
20231028T123947750158,$IIZDA,,,,,,*5F
20231028T123947878806,$GPGSV,5,1,18,05,44,062,41,13,58,062,45,15,77,205,43,18,48,314,45*7C
20231028T123947914415,$IIGSA,A,1,05,13,15,18,20,23,24,29,30,44,46,48,1.15,0.66,0.95,*3B
20231028T123948369501,$IIDPT,2.87,1.09,*69
20231028T123948396273,$IIGLL,,,,,,V,N*73
20231028T123948763340,$IIZDA,,,,,,*5F
20231028T123948880615,$GPGSV,5,1,18,05,44,062,41,13,58,062,45,15,77,205,43,18,48,314,45*7C
20231028T123948964378,$IIGSA,A,1,05,13,15,18,20,23,24,29,30,44,46,48,1.15,0.66,0.95,*3B
20231028T123949382383,$IIDPT,2.89,1.09,*67
20231028T123949396586,$IIGLL,,,,,,V,N*73
20231028T123949779633,$IIZDA,,,,,,*5F
20231028T123949890910,$GPGSV,5,1,18,05,44,063,37,13,58,062,43,15,77,205,40,18,48,314,42*7E
20231028T123950428585,$IIGLL,,,,,,V,N*73
20231028T123950783081,$IIZDA,,,,,,*5F
20231028T123950891604,$GPGSV,5,2,18,20,16,083,30,23,28,279,39,24,15,161,37,29,42,220,45*7B
20231028T123950917279,$IIGSA,A,1,05,13,15,18,20,23,24,29,30,44,46,48,1.15,0.66,0.95,*3B
20231028T123951414608,$IIDPT,2.89,1.09,*67
20231028T123951447361,$IIGLL,,,,,,V,N*73
20231028T123951785409,$IIZDA,,,,,,*5F
20231028T123951891647,$GLGSV,5,4,18,65,37,035,45,66,72,298,36,67,27,240,41,81,74,311,35*66
20231028T123951951479,$IIGSA,A,1,05,13,15,18,20,23,24,29,30,44,46,48,1.15,0.66,0.95,*3B
20231028T123952462499,$IIGLL,3926.86483,N,07602.97946,W,,V,N*53
20231028T123952786843,$IIZDA,,,,,,*5F
20231028T123953401001,$IIDPT,2.93,1.09,*6C
20231028T123953493516,$IIGLL,,,,,,V,N*73
20231028T123953789271,$IIZDA,,,,,,*5F
20231028T123953888493,$GPGSV,5,1,18,05,44,063,37,13,58,062,42,15,77,205,39,18,48,314,40*73
20231028T123953902326,$IIGSA,A,1,05,13,15,18,20,23,24,29,30,44,46,48,1.15,0.66,0.95,*3B
20231028T123954401296,$IIDPT,2.96,1.09,*69
20231028T123954552872,$IIGLL,3926.86502,N,07602.98214,W,,V,N*58
20231028T123954795472,$IIZDA,,,,,,*5F
20231028T123954888605,$GPGSV,5,1,18,05,44,063,37,13,58,062,42,15,77,205,39,18,48,314,40*73
20231028T123954903638,$IIGSA,A,1,05,13,15,18,20,23,24,29,30,44,46,48,1.15,0.66,0.95,*3B
20231028T123955403056,$IIDPT,2.95,1.09,*6A
20231028T123955583339,$IIGLL,,,,,,V,N*73
20231028T123955797984,$IIZDA,,,,,,*5F
20231028T123955888867,$GPGSV,5,2,18,20,16,083,30,23,28,279,39,24,16,161,39,29,42,220,49*7A
20231028T123955906019,$IIGSA,A,1,05,13,15,18,20,23,24,29,30,44,46,48,1.15,0.66,0.95,*3B
20231028T123956419618,$IIDPT,2.97,1.09,*68
20231028T123956586573,$IIGLL,,,,,,V,N*73
20231028T123956816045,$IIZDA,,,,,,*5F
20231028T123956889793,$GPGSV,5,1,18,05,44,063,41,13,58,062,46,15,77,205,42,18,48,314,44*7E
20231028T123956906467,$IIGSA,A,1,05,13,15,18,20,23,24,29,30,44,46,48,1.15,0.66,0.95,*3B
20231028T123957420454,$IIDPT,2.98,1.09,*67
20231028T123957663100,$IIGLL,3926.86522,N,07602.98637,W,,V,N*5F
20231028T123957821007,$IIZDA,,,,,,*5F
20231028T123957955524,$IIGSA,A,1,05,13,15,18,20,23,24,29,30,44,46,48,1.15,0.66,0.95,*3B
20231028T123958437147,$IIDPT,3.01,1.09,*66
20231028T123958682322,$IIGLL,,,,,,V,N*73
20231028T123958822681,$IIZDA,,,,,,*5F
20231028T123958873700,$GPGSV,5,1,18,05,44,063,41,13,58,062,46,15,77,205,42,18,48,314,44*7E
20231028T123958958786,$IIGSA,A,1,05,13,15,18,20,23,24,29,30,44,46,48,1.15,0.66,0.95,*3B
20231028T123959438136,$IIDPT,2.99,1.09,*66
20231028T123959759802,$IIGLL,3926.86541,N,07602.98906,W,,V,N*57
20231028T123959825921,$IIZDA,,,,,,*5F
20231028T123959876380,$GPGSV,5,1,18,05,44,063,39,13,58,062,43,15,77,205,40,18,48,314,41*73
20231028T123959961020,$IIGSA,A,1,05,13,15,18,20,23,24,29,30,44,46,48,1.15,0.66,0.95,*3B
20231028T124000439697,$IIDPT,3.03,1.09,*64
20231028T124000762654,$IIGLL,3926.86541,N,07602.99059,W,,V,N*55
20231028T124000827109,$IIZDA,,,,,,*5F
20231028T124000877220,$GPGSV,5,1,18,05,44,063,39,13,58,062,43,15,77,205,40,18,48,314,41*73
20231028T124001783440,$IIGLL,,,,,,V,N*73
20231028T124001844916,$IIZDA,,,,,,*5F
20231028T124001878732,$GPGSV,5,1,18,05,44,063,38,13,58,062,44,15,77,205,40,18,48,314,41*75
20231028T124001911343,$IIGSA,A,1,05,13,15,18,20,23,24,29,30,44,46,48,1.15,0.66,0.95,*3B
20231028T124002441481,$IIDPT,3.04,1.09,*63
20231028T124002859659,$IIGLL,3926.86577,N,07602.9936,W,124000.899,A,D*65
20231028T124002893291,$GPGSV,5,1,18,05,44,063,38,13,58,062,44,15,77,205,40,18,48,314,41*75
20231028T124002913777,$IIGSA,A,1,05,13,15,18,20,23,24,29,30,44,46,48,1.15,0.66,0.95,*3B
20231028T124002946901,$IIZDA,,,,,,*5F
20231028T124003457566,$IIDPT,3.07,1.09,*60
20231028T124003889579,$IIGLL,,,,,,V,N*73
20231028T124003963647,$IIGSA,A,1,05,13,15,18,20,23,24,29,30,44,46,48,1.15,0.66,0.95,*3B
20231028T124004251556,$IIZDA,124002.299,28,10,2023,-01,59*6E
20231028T124004880364,$GPGSV,5,1,18,05,44,063,42,13,58,062,44,15,77,205,41,18,48,314,42*7A
20231028T124004914577,$IIGLL,,,,,,V,N*73
20231028T124004964376,$IIGSA,A,1,05,13,15,18,20,23,24,29,30,44,46,48,1.15,0.66,0.95,*3B
20231028T124005252298,$IIZDA,124003.299,28,10,2023,-01,59*6F
20231028T124005473573,$IIDPT,2.89,1.09,*67
20231028T124005893100,$GLGSV,5,5,18,82,24,329,47,88,46,158,50*60
20231028T124005948130,$IIGLL,3926.86598,N,07602.9975,W,,V,N*6F
20231028T124005980627,$IIGSA,A,1,05,13,15,18,20,23,24,29,30,44,46,48,1.15,0.66,0.95,*3B
20231028T124006253087,$IIZDA,124004.299,28,10,2023,-01,59*68
20231028T124006475454,$IIDPT,3.14,1.09,*62
20231028T124006893794,$GLGSV,5,5,18,82,24,329,47,88,46,158,50*60
20231028T124006949134,$IIGLL,3926.86598,N,07602.99866,W,,V,N*55
20231028T124006981623,$IIGSA,A,1,05,13,15,18,20,23,24,29,30,44,46,48,1.15,0.66,0.95,*3B
20231028T124007255475,$IIZDA,124005.299,28,10,2023,-01,59*69
20231028T124007477806,$IIDPT,3.16,1.09,*60
20231028T124007960252,$IIGLL,3926.86598,N,07603.00019,W,,V,N*54
20231028T124008478836,$IIDPT,3.18,1.09,*6E
20231028T124008693873,$IIZDA,,,,,,*5F
20231028T124008878772,$GPGSV,5,1,18,05,44,063,40,13,58,062,45,15,77,205,42,18,48,314,43*7B
20231028T124008912685,$IIGSA,A,1,05,13,15,18,20,23,24,29,30,44,46,48,1.16,0.66,0.96,*3B
20231028T124008986964,$IIGLL,,,,,,V,N*73
20231028T124009493865,$IIDPT,3.18,1.09,*6E
20231028T124009694694,$IIZDA,,,,,,*5F
20231028T124009879856,$GPGSV,5,1,18,05,44,063,40,13,58,062,45,15,77,205,41,18,48,314,43*78
20231028T124009963376,$IIGSA,A,1,05,13,15,18,20,23,24,29,30,44,46,48,1.16,0.66,0.96,*3B
20231028T124009995334,$IIGLL,,,,,,V,N*73
20231028T124010495270,$IIDPT,3.2,1.09,*55
20231028T124010696179,$IIZDA,,,,,,*5F
20231028T124010881608,$GPGSV,5,1,18,05,44,063,40,13,58,062,45,15,77,205,41,18,48,314,43*78
20231028T124011049742,$IIGLL,3926.86618,N,07603.00442,W,,V,N*55
20231028T124011495501,$IIDPT,3.22,1.09,*67
20231028T124011885319,$GPGSV,5,1,18,05,44,063,41,13,58,062,46,15,77,205,42,18,48,314,44*7E
20231028T124011904272,$IIGSA,A,1,05,13,15,18,20,23,24,29,30,44,46,48,1.16,0.66,0.96,*3B
20231028T124011918669,$IIZDA,,,,,,*5F
20231028T124012053825,$IIGLL,3926.86637,N,07603.00557,W,,V,N*5D
20231028T124012513128,$IIDPT,3.26,1.09,*63
20231028T124012887246,$GPGSV,5,1,18,05,44,063,41,13,58,062,46,15,77,205,42,18,48,314,44*7E
20231028T124012905896,$IIGSA,A,1,05,13,15,18,20,23,24,29,30,44,46,48,1.16,0.66,0.96,*3B
20231028T124012923315,$IIZDA,,,,,,*5F
20231028T124013054053,$IIGLL,3926.86637,N,07603.0071,W,,V,N*6C
20231028T124013514402,$IIDPT,3.26,1.09,*63
20231028T124013888210,$GPGSV,5,1,18,05,44,063,43,13,58,062,48,15,77,205,45,18,48,314,46*77
20231028T124013907018,$IIGSA,A,1,05,13,15,18,20,23,24,29,30,44,46,48,1.16,0.66,0.96,*3B
20231028T124013923606,$IIZDA,,,,,,*5F
20231028T124014054924,$IIGLL,3926.86637,N,07603.00787,W,,V,N*52
20231028T124014515303,$IIDPT,3.27,1.09,*62
20231028T124014949790,$IIGSA,A,1,05,13,15,18,20,23,24,29,30,44,46,48,1.16,0.66,0.96,*3B
20231028T124015024068,$IIZDA,,,,,,*5F
20231028T124015057454,$IIGLL,3926.86656,N,07603.00941,W,,V,N*51
20231028T124015516589,$IIDPT,3.32,1.09,*66
20231028T124015875785,$GPGSV,5,1,18,05,44,063,40,13,58,062,45,15,78,205,42,18,48,314,43*74
20231028T124015958970,$IIGSA,A,1,05,13,15,18,20,23,24,29,30,44,46,48,1.16,0.66,0.96,*3B
20231028T124016025349,$IIZDA,,,,,,*5F
20231028T124016058832,$IIGLL,3926.86656,N,07603.01056,W,,V,N*5F
20231028T124016531994,$IIDPT,3.35,1.09,*61
20231028T124016878538,$GPGSV,5,1,18,05,44,063,40,13,58,062,45,15,78,205,42,18,48,314,43*74
20231028T124016963347,$IIGSA,A,1,05,13,15,18,20,23,24,29,30,44,46,48,1.16,0.66,0.96,*3B
20231028T124017026450,$IIZDA,,,,,,*5F
20231028T124017060294,$IIGLL,3926.86656,N,07603.0121,W,,V,N*6F
20231028T124017533797,$IIDPT,3.33,1.09,*67
20231028T124017878895,$GPGSV,5,1,18,05,44,063,39,13,58,062,44,15,78,205,41,18,48,314,42*79
20231028T124018088212,$IIGLL,,,,,,V,N*73
20231028T124018256952,$IIZDA,124016.299,28,10,2023,-01,59*6B
20231028T124018533897,$IIDPT,3.37,1.09,*63
20231028T124018877853,$IIGSA,A,1,05,13,15,18,20,23,24,29,30,44,46,48,1.16,0.66,0.96,*3B
20231028T124019088604,$IIGLL,,,,,,V,N*73
20231028T124019535556,$IIDPT,3.39,1.09,*6D
20231028T124019692094,$IIZDA,,,,,,*5F
20231028T124019888080,$GPGSV,5,1,18,05,44,063,42,13,58,062,47,15,78,205,43,18,48,314,44*72
20231028T124019906492,$IIGSA,A,1,05,13,15,18,20,23,24,29,30,44,46,48,1.16,0.66,0.96,*3B
20231028T124020091061,$IIGLL,,,,,,V,N*73
20231028T124020551575,$IIDPT,3.41,1.09,*62
20231028T124020693940,$IIZDA,,,,,,*5F
20231028T124020890880,$GLGSV,5,4,18,65,37,035,47,66,72,299,38,67,27,240,42,81,74,310,37*6B
20231028T124020908334,$IIGSA,A,1,05,13,15,18,20,23,24,29,30,44,46,48,1.16,0.66,0.96,*3B
20231028T124021092181,$IIGLL,,,,,,V,N*73
20231028T124021553471,$IIDPT,3.45,1.09,*66
20231028T124021694839,$IIZDA,,,,,,*5F
20231028T124021891792,$GLGSV,5,5,18,82,24,329,47,88,46,158,48*69
20231028T124021909069,$IIGSA,A,1,05,13,15,18,20,23,24,29,30,44,46,48,1.16,0.66,0.96,*3B
20231028T124022092940,$IIGLL,,,,,,V,N*73
20231028T124022554719,$IIDPT,3.45,1.09,*66
20231028T124022964194,$IIGSA,A,1,05,13,15,18,20,23,24,29,30,44,46,48,1.16,0.66,0.96,*3B
20231028T124022980068,$IIZDA,,,,,,*5F
20231028T124023095463,$IIGLL,,,,,,V,N*73
20231028T124023571454,$IIDPT,3.48,1.09,*6B
20231028T124023885543,$GPGSV,5,1,18,05,44,063,41,13,58,062,46,15,78,205,43,18,48,314,44*70
20231028T124024061571,$IIZDA,,,,,,*5F
20231028T124024162568,$IIGLL,3926.86714,N,07603.0217,W,,V,N*6E
20231028T124024571805,$IIDPT,3.52,1.09,*60
20231028T124024887697,$GPGSV,5,1,18,05,44,063,41,13,58,062,46,15,78,205,43,18,48,314,44*70
20231028T124024905903,$IIGSA,A,1,05,13,15,18,20,23,24,29,30,44,46,48,1.16,0.66,0.96,*3B
20231028T124025079263,$IIZDA,,,,,,*5F
20231028T124025163471,$IIGLL,3926.86714,N,07603.02323,W,,V,N*5A
20231028T124025589172,$IIDPT,3.58,1.09,*6A
20231028T124025888046,$GPGSV,5,1,18,05,44,063,40,13,58,062,45,15,78,205,43,18,48,314,44*72
20231028T124025952630,$IIGSA,A,1,05,13,15,18,20,23,24,29,30,44,46,48,1.16,0.66,0.96,*3B
20231028T124026083643,$IIZDA,,,,,,*5F
20231028T124026195562,$IIGLL,,,,,,V,N*73
20231028T124026964257,$IIGSA,A,1,05,13,15,18,20,23,24,29,30,44,46,48,1.16,0.66,0.96,*3B
20231028T124027084760,$IIZDA,,,,,,*5F
20231028T124027250349,$IIGLL,3926.86733,N,07603.02592,W,,V,N*53
20231028T124027591379,$IIDPT,3.57,1.09,*65
20231028T124027875294,$GPGSV,5,1,18,05,44,063,40,13,58,062,45,15,78,205,42,18,48,314,43*74
20231028T124028253598,$IIGLL,3926.86733,N,07603.02707,W,,V,N*5D
20231028T124028284887,$IIZDA,124026.299,28,10,2023,-01,59*68
20231028T124028887511,$GPGSV,5,1,18,05,44,063,40,13,58,062,45,15,78,205,42,18,48,314,43*74
20231028T124028905778,$IIGSA,A,1,05,13,15,18,20,23,24,29,30,44,46,48,1.16,0.66,0.96,*3B
20231028T124029256188,$IIGLL,3926.86733,N,07603.02822,W,,V,N*55
20231028T124029288397,$IIZDA,124027.299,28,10,2023,-01,59*69
20231028T124029608752,$IIDPT,3.38,1.09,*6C
20231028T124029955159,$IIGSA,A,1,05,13,15,18,20,23,24,29,30,44,46,48,1.16,0.66,0.96,*3B
20231028T124030260722,$IIGLL,3926.86752,N,07603.02938,W,,V,N*58
20231028T124030608949,$IIDPT,3.69,1.09,*68
20231028T124030697362,$IIZDA,,,,,,*5F
20231028T124030884744,$GPGSV,5,1,18,05,44,063,39,13,58,062,44,15,78,205,41,18,48,314,42*79
20231028T124030963596,$IIGSA,A,1,05,13,15,18,20,23,24,29,30,44,46,48,1.16,0.66,0.96,*3B
20231028T124031261473,$IIGLL,3926.86752,N,07603.03091,W,,V,N*53
20231028T124031609419,$IIDPT,3.3,1.09,*54
20231028T124032006135,$IIZDA,,,,,,*5F
20231028T124032297288,$IIGLL,,,,,,V,N*73
20231028T124032611252,$IIDPT,3.64,1.09,*65
20231028T124032882083,$GPGSV,5,1,18,05,44,063,42,13,58,062,46,15,78,205,43,18,48,314,44*73
20231028T124032900298,$IIGSA,A,1,05,13,15,18,20,23,24,29,30,44,46,48,1.16,0.66,0.96,*3B
20231028T124033007088,$IIZDA,,,,,,*5F
20231028T124033297312,$IIGLL,,,,,,V,N*73
20231028T124033625516,$IIDPT,3.72,1.09,*62
20231028T124033884327,$GPGSV,5,1,18,05,44,063,42,13,58,062,46,15,78,205,43,18,48,314,45*72
20231028T124033901831,$IIGSA,A,1,05,13,15,18,20,23,24,29,30,44,46,48,1.18,0.67,0.96,*34
20231028T124034024836,$IIZDA,,,,,,*5F
20231028T124034361890,$IIGLL,3926.86771,N,07603.03437,W,,V,N*5A
20231028T124034632738,$IIDPT,3.64,1.09,*65
20231028T124034961582,$IIGSA,A,1,05,13,15,18,20,23,24,29,30,44,46,48,1.16,0.66,0.96,*3B
20231028T124035027675,$IIZDA,,,,,,*5F
20231028T124035362383,$IIGLL,3926.86771,N,07603.0359,W,,V,N*66
20231028T124035633701,$IIDPT,3.75,1.09,*65
20231028T124035918389,$GPGSV,5,1,18,05,44,063,42,13,58,062,45,15,78,205,42,18,48,314,44*71
20231028T124035962942,$IIGSA,A,1,05,13,15,18,20,23,24,29,30,44,46,48,1.16,0.66,0.96,*3B
20231028T124036044041,$IIZDA,,,,,,*5F
20231028T124036394271,$IIGLL,,,,,,V,N*73
20231028T124036652137,$IIDPT,3.85,1.09,*6A
20231028T124037154432,$IIZDA,,,,,,*5F
20231028T124037395140,$IIGLL,,,,,,V,N*73
20231028T124037653429,$IIDPT,3.82,1.09,*6D
20231028T124037874711,$GPGSV,5,1,18,05,44,063,39,13,58,062,42,15,78,205,39,18,49,314,41*72
20231028T124037907702,$IIGSA,A,1,05,13,15,18,20,23,24,29,30,44,46,48,1.16,0.66,0.96,*3B
20231028T124038155562,$IIZDA,,,,,,*5F
20231028T124038397300,$IIGLL,,,,,,V,N*73
20231028T124038670219,$IIDPT,3.82,1.09,*6D
20231028T124038890641,$GPGSV,5,1,18,05,44,063,39,13,58,062,42,15,78,205,39,18,49,314,41*72
20231028T124038908732,$IIGSA,A,1,05,13,15,18,20,23,24,29,30,44,46,48,1.16,0.66,0.96,*3B
20231028T124039171162,$IIZDA,,,,,,*5F
20231028T124039397415,$IIGLL,,,,,,V,N*73
20231028T124039670982,$IIDPT,3.91,1.09,*6F
20231028T124039891459,$GLGSV,5,5,18,82,24,329,47,88,45,158,49*6B
20231028T124039949983,$IIGSA,A,1,05,13,15,18,20,23,24,29,30,44,46,48,1.16,0.66,0.96,*3B
20231028T124040175683,$IIZDA,,,,,,*5F
20231028T124040398001,$IIGLL,,,,,,V,N*73
20231028T124040687115,$IIDPT,3.89,1.09,*66
20231028T124040955766,$IIGSA,A,1,05,13,15,18,20,23,24,29,30,44,46,48,1.16,0.66,0.96,*3B
20231028T124041253540,$IIZDA,124039.299,28,10,2023,-01,59*66
20231028T124041432242,$IIGLL,,,,,,V,N*73
20231028T124041690181,$IIDPT,3.89,1.09,*66
20231028T124041878334,$GPGSV,5,1,18,05,44,063,41,13,58,062,43,15,78,205,42,18,49,314,43*72
20231028T124042462917,$IIGLL,3926.8679,N,07603.04397,W,,V,N*6F
20231028T124042692849,$IIZDA,,,,,,*5F
20231028T124042719168,$IIDPT,3.97,1.09,*69
20231028T124042882346,$GPGSV,5,1,18,05,44,063,41,13,58,062,43,15,78,205,42,18,49,314,43*72
20231028T124042901005,$IIGSA,A,1,05,13,15,18,20,23,24,29,30,44,46,48,1.16,0.66,0.96,*3B
20231028T124043496084,$IIGLL,,,,,,V,N*73
20231028T124043695919,$IIZDA,,,,,,*5F
20231028T124043958760,$IIGSA,A,1,05,13,15,18,20,23,24,29,30,46,48,65,1.18,0.67,0.96,*37
20231028T124044496253,$IIGLL,,,,,,V,N*73
20231028T124044696798,$IIZDA,,,,,,*5F
20231028T124044714346,$IIDPT,3.73,1.09,*63
20231028T124044883506,$GPGSV,5,1,18,05,44,063,41,13,58,062,44,15,78,205,43,18,49,314,44*73
20231028T124044963553,$IIGSA,A,1,05,13,15,18,20,23,24,29,30,46,48,65,1.18,0.67,0.96,*37
20231028T124045497526,$IIGLL,,,,,,V,N*73
20231028T124045714572,$IIDPT,4.04,1.09,*64
20231028T124045883691,$GPGSV,5,1,18,05,44,063,42,13,58,061,46,15,78,205,44,18,49,314,46*74
20231028T124045966219,$IIGSA,A,1,05,13,15,18,20,23,24,29,30,44,46,48,1.18,0.67,0.96,*34
20231028T124046119286,$IIZDA,,,,,,*5F
20231028T124046498009,$IIGLL,,,,,,V,N*73
20231028T124046887029,$GPGSV,5,1,18,05,44,063,42,13,58,061,46,15,78,205,44,18,49,314,46*74
20231028T124047224080,$IIZDA,,,,,,*5F
20231028T124047562392,$IIGLL,3926.86829,N,07603.04973,W,,V,N*52
20231028T124047720009,$IIDPT,3.54,1.09,*66
20231028T124047887860,$GPGSV,5,1,18,05,44,063,42,13,58,061,44,15,78,205,43,18,49,314,43*74
20231028T124047906232,$IIGSA,A,1,05,13,15,18,20,23,24,29,30,44,46,48,1.18,0.67,0.96,*34
20231028T124048228258,$IIZDA,,,,,,*5F
20231028T124048563094,$IIGLL,3926.86829,N,07603.0505,W,,V,N*6B
20231028T124048736377,$IIDPT,4.08,1.09,*68
20231028T124048950453,$IIGSA,A,1,05,13,15,18,20,23,24,29,30,44,46,48,1.16,0.66,0.96,*3B
20231028T124049230450,$IIZDA,,,,,,*5F
20231028T124049596639,$IIGLL,,,,,,V,N*73
20231028T124049739043,$IIDPT,3.66,1.09,*67
20231028T124049887960,$GPGSV,5,1,18,05,44,063,40,13,58,061,44,15,78,205,42,18,49,314,42*76
20231028T124049963472,$IIGSA,A,1,05,13,15,18,20,23,24,29,30,44,46,48,1.16,0.66,0.96,*3B
20231028T124050231193,$IIZDA,,,,,,*5F
20231028T124050597151,$IIGLL,,,,,,V,N*73
20231028T124050740906,$IIDPT,4.12,1.09,*63
20231028T124050891052,$GLGSV,5,5,18,82,24,329,49,88,45,158,50*6D
20231028T124051245726,$IIZDA,,,,,,*5F
20231028T124051660699,$IIGLL,3926.86848,N,07603.05357,W,,V,N*58
20231028T124051757756,$IIDPT,3.98,1.09,*66
20231028T124051892540,$IIGSA,A,1,05,13,15,18,20,23,24,29,30,44,46,48,1.16,0.66,0.96,*3B
20231028T124052247734,$IIZDA,,,,,,*5F
20231028T124052661433,$IIGLL,3926.86848,N,07603.05472,W,,V,N*58
20231028T124052761491,$IIDPT,4.08,1.09,*68
20231028T124052878189,$GPGSV,5,1,18,05,44,063,45,13,58,061,41,15,78,205,42,18,49,314,46*72
20231028T124052913093,$IIGSA,A,1,05,13,15,18,20,23,24,29,30,44,46,48,1.16,0.66,0.96,*3B
20231028T124053248005,$IIZDA,,,,,,*5F
20231028T124053662843,$IIGLL,3926.86867,N,07603.05549,W,,V,N*5C
20231028T124053768663,$IIDPT,4.13,1.09,*62
20231028T124053879149,$GPGSV,5,1,18,05,44,063,45,13,58,061,41,15,78,205,42,18,49,314,44*70
20231028T124053913998,$IIGSA,A,1,05,13,15,18,20,23,24,29,30,44,46,48,1.16,0.66,0.96,*3B
20231028T124054262921,$IIZDA,,,,,,*5F
20231028T124054663419,$IIGLL,3926.86867,N,07603.05702,W,,V,N*51
20231028T124054771694,$IIDPT,4.13,1.09,*62
20231028T124054880041,$GPGSV,5,1,18,05,44,063,45,13,58,061,41,15,78,205,42,18,49,314,44*70
20231028T124054914314,$IIGSA,A,1,05,13,15,18,20,23,24,29,30,44,46,48,1.16,0.66,0.96,*3B
20231028T124055266280,$IIZDA,,,,,,*5F
20231028T124055696603,$IIGLL,,,,,,V,N*73
20231028T124055779644,$IIDPT,3.18,1.09,*6E
20231028T124055891003,$GPGSV,5,1,18,05,44,063,48,13,58,061,43,15,78,205,40,18,49,314,43*7A
20231028T124055915276,$IIGSA,A,1,05,13,15,18,20,23,24,29,30,44,46,48,1.16,0.66,0.96,*3B
20231028T124056697271,$IIZDA,,,,,,*5F
20231028T124056712898,$IIGLL,,,,,,V,N*73
20231028T124056782374,$IIDPT,4.04,1.09,*64
20231028T124056961253,$IIGSA,A,1,05,13,15,18,20,23,24,29,30,44,46,48,1.16,0.66,0.96,*3B
20231028T124057698071,$IIZDA,,,,,,*5F
20231028T124057713920,$IIGLL,,,,,,V,N*73
20231028T124057785831,$IIDPT,4.23,1.09,*61
20231028T124057889121,$GPGSV,5,1,18,05,44,063,50,13,58,061,46,15,78,205,40,18,49,314,45*70
20231028T124058759429,$IIGLL,3926.86944,N,07603.06048,W,,V,N*5B
20231028T124058883679,$IIGSA,A,1,05,13,15,18,20,23,24,29,30,44,46,48,1.16,0.66,0.96,*3B
20231028T124059188935,$IIZDA,,,,,,*5F
20231028T124059763039,$IIGLL,3926.86982,N,07603.06163,W,,V,N*59
20231028T124059785084,$IIDPT,4.07,1.09,*67
20231028T124059884604,$GPGSV,5,1,18,05,44,063,48,13,58,061,47,15,78,205,42,18,49,314,42*7D
20231028T124059902970,$IIGSA,A,1,05,13,15,18,20,23,24,29,30,44,46,48,1.16,0.66,0.96,*3B
20231028T124100191756,$IIZDA,,,,,,*5F
20231028T124100796051,$IIGLL,,,,,,V,N*73
20231028T124100814517,$IIDPT,4.24,1.09,*66
20231028T124100886718,$GPGSV,5,1,18,05,44,063,48,13,58,061,47,15,78,205,42,18,49,314,42*7D
20231028T124100904090,$IIGSA,A,1,05,13,15,18,20,23,24,29,30,44,46,48,1.16,0.66,0.96,*3B
20231028T124101253730,$IIZDA,124059.299,28,10,2023,-01,59*60
20231028T124101797222,$IIGLL,,,,,,V,N*73
20231028T124101815630,$IIDPT,4.27,1.09,*65
20231028T124101888196,$GPGSV,5,1,18,05,44,063,46,13,58,061,45,15,78,205,40,18,49,314,38*7E
20231028T124101905081,$IIGSA,A,1,05,13,15,18,20,23,24,29,30,44,46,48,1.16,0.66,0.96,*3B
20231028T124102254479,$IIZDA,124100.299,28,10,2023,-01,59*6D
20231028T124102858197,$IIGLL,3926.87071,N,07603.06451,W,124100.899,A,D*54
20231028T124102891646,$GPGSV,5,1,18,05,44,063,46,13,58,061,45,15,78,205,40,18,49,314,38*7E
20231028T124102906284,$IIGSA,A,1,05,13,15,18,20,23,24,29,30,44,46,48,1.16,0.66,0.96,*3B
20231028T124103256781,$IIZDA,124101.299,28,10,2023,-01,59*6C
20231028T124103812691,$IIDPT,3.7,1.09,*50
20231028T124103858262,$IIGLL,3926.87133,N,07603.06493,W,124101.899,A,D*5C
20231028T124103963533,$IIGSA,A,1,05,13,15,18,20,23,24,29,30,44,46,48,1.16,0.66,0.96,*3B
20231028T124104260534,$IIZDA,124102.299,28,10,2023,-01,59*6F
20231028T124104813818,$IIDPT,4.29,1.09,*6B
20231028T124104889459,$GPGSV,5,1,18,05,44,063,45,13,58,061,45,15,78,205,40,18,49,314,42*70
20231028T124104908966,$IIGLL,,,,,,V,N*73
20231028T124105325378,$IIZDA,,,,,,*5F
20231028T124105831943,$IIDPT,3.68,1.09,*69
20231028T124105890116,$GPGSV,5,2,18,20,15,084,43,23,29,280,41,24,16,161,36,29,41,219,46*7B
20231028T124105909804,$IIGSA,A,1,05,13,15,18,20,23,24,29,30,44,46,48,1.16,0.66,0.96,*3B
20231028T124105925615,$IIGLL,,,,,,V,N*73
20231028T124106326026,$IIZDA,,,,,,*5F
20231028T124106832438,$IIDPT,4.07,1.09,*67
20231028T124106891567,$GLGSV,5,5,18,82,24,329,42,88,45,158,39*69
20231028T124106960043,$IIGLL,3926.87251,N,07603.06701,W,,V,N*5F
20231028T124106976892,$IIGSA,A,1,05,13,15,18,20,23,24,29,30,44,46,48,1.16,0.66,0.96,*3B
20231028T124107329990,$IIZDA,,,,,,*5F
20231028T124107833562,$IIDPT,4.22,1.09,*60
20231028T124107990156,$IIGLL,,,,,,V,N*73
20231028T124108344079,$IIZDA,,,,,,*5F
20231028T124108850408,$IIDPT,3.97,1.09,*69
20231028T124108878559,$GPGSV,5,1,18,05,44,063,46,13,58,061,47,15,78,205,41,18,49,314,41*73
20231028T124108911811,$IIGSA,A,1,05,13,15,18,20,23,24,29,30,44,46,48,1.16,0.66,0.96,*3B
20231028T124109000085,$IIGLL,,,,,,V,N*73
20231028T124109346578,$IIZDA,,,,,,*5F
20231028T124109852827,$IIDPT,4.25,1.09,*67
20231028T124109895242,$GPGSV,5,1,18,05,44,063,47,13,58,061,48,15,78,205,44,18,49,314,43*7A
20231028T124109913364,$IIGSA,A,1,05,13,15,18,20,23,24,29,30,44,46,48,1.16,0.66,0.96,*3B
20231028T124110059982,$IIGLL,3926.87424,N,07603.06893,W,,V,N*5F
20231028T124110347511,$IIZDA,,,,,,*5F
20231028T124110869627,$IIDPT,3.85,1.09,*6A
20231028T124110896922,$GPGSV,5,1,18,05,44,063,47,13,58,061,48,15,78,205,44,18,49,314,43*7A
20231028T124110913873,$IIGSA,A,1,05,13,15,18,20,23,24,29,30,44,46,48,1.16,0.66,0.96,*3B
20231028T124111060096,$IIGLL,3926.87482,N,07603.06931,W,,V,N*5A
20231028T124111363800,$IIZDA,,,,,,*5F
20231028T124111870953,$IIDPT,4.3,1.09,*53
20231028T124111897872,$GPGSV,5,1,18,05,44,063,51,13,58,061,50,15,78,205,46,18,49,314,47*72
20231028T124111915612,$IIGSA,A,1,05,13,15,18,20,23,24,29,30,44,46,48,1.16,0.66,0.96,*3B
20231028T124112061631,$IIGLL,3926.87539,N,07603.0697,W,,V,N*6E
20231028T124112364628,$IIZDA,,,,,,*5F
20231028T124112872760,$IIDPT,4.09,1.09,*69
20231028T124112899100,$GPGSV,5,1,18,05,44,063,51,13,58,061,50,15,78,205,46,18,49,314,47*72
20231028T124112916747,$IIGSA,A,1,05,13,15,18,20,23,24,29,30,44,46,48,1.16,0.66,0.96,*3B
20231028T124113062563,$IIGLL,3926.87597,N,07603.07008,W,,V,N*5D
20231028T124113368000,$IIZDA,,,,,,*5F
20231028T124113888374,$IIDPT,4.29,1.09,*6B
20231028T124113905363,$GPGSV,5,1,18,05,44,063,48,13,58,061,47,15,78,205,44,18,49,314,42*7B
20231028T124113951008,$IIGSA,A,1,05,13,15,18,20,23,24,29,30,44,46,48,1.16,0.66,0.96,*3B
20231028T124114098346,$IIGLL,,,,,,V,N*73
20231028T124114684966,$IIZDA,,,,,,*5F
20231028T124114956808,$IIGSA,A,1,05,13,15,18,20,23,24,29,30,44,46,48,1.16,0.66,0.96,*3B
20231028T124115099405,$IIGLL,,,,,,V,N*73
20231028T124115699248,$IIZDA,,,,,,*5F
20231028T124115880081,$GPGSV,5,1,18,05,44,063,49,13,58,061,45,15,78,205,42,18,49,314,40*7C
20231028T124115901135,$IIDPT,4.04,1.09,*64
20231028T124116158305,$IIGLL,3926.87808,N,07603.07162,W,,V,N*5B
20231028T124116889580,$GPGSV,5,2,18,20,15,084,40,23,29,280,43,24,16,161,34,29,41,219,47*79
20231028T124116908801,$IIGSA,A,1,05,13,15,18,20,23,24,29,30,44,46,48,1.16,0.66,0.96,*3B
20231028T124116938267,$IIDPT,3.85,1.09,*6A
20231028T124117161247,$IIGLL,3926.87866,N,07603.07162,W,,V,N*53
20231028T124117252224,$IIZDA,124115.299,28,10,2023,-01,59*69
20231028T124117952372,$IIGSA,A,1,05,13,15,18,20,23,24,29,30,44,46,48,1.16,0.66,0.96,*3B
20231028T124118195563,$IIGLL,,,,,,V,N*73
20231028T124118255361,$IIZDA,124116.299,28,10,2023,-01,59*6A
20231028T124118875516,$GPGSV,5,1,18,05,44,063,48,13,58,061,47,15,78,205,42,18,49,314,40*7F
20231028T124118921732,$IIDPT,3.74,1.09,*64
20231028T124118957704,$IIGSA,A,1,05,13,15,18,20,23,24,29,30,44,46,48,1.16,0.66,0.96,*3B
20231028T124119196877,$IIGLL,,,,,,V,N*73
20231028T124119256985,$IIZDA,124117.299,28,10,2023,-01,59*6B
20231028T124119875560,$GPGSV,5,1,18,05,44,063,45,13,58,061,49,15,78,205,43,18,49,314,43*7E
20231028T124119922957,$IIDPT,4.18,1.09,*69
20231028T124120256620,$IIGLL,3926.88077,N,07603.07238,W,,V,N*58
20231028T124120274422,$IIZDA,124118.299,28,10,2023,-01,59*64
20231028T124120878417,$GPGSV,5,1,18,05,44,063,45,13,58,061,49,15,78,205,43,18,49,314,43*7E
20231028T124120912168,$IIGSA,A,1,05,13,15,18,20,23,24,29,30,44,46,48,1.16,0.66,0.96,*3B
20231028T124120940918,$IIDPT,4.22,1.09,*60
20231028T124121260961,$IIGLL,3926.88154,N,07603.07238,W,,V,N*58
20231028T124121277968,$IIZDA,124119.299,28,10,2023,-01,59*65
20231028T124121892160,$GPGSV,5,3,18,30,10,043,41,44,28,234,44,46,19,245,39,48,22,241,41*74
20231028T124121957951,$IIGSA,A,1,05,13,15,18,20,23,24,29,30,44,46,48,1.16,0.66,0.96,*3B
20231028T124122262722,$IIGLL,3926.88211,N,07603.07238,W,,V,N*5A
20231028T124122278601,$IIZDA,124120.299,28,10,2023,-01,59*6F
20231028T124122940122,$IIDPT,3.48,1.09,*6B
20231028T124122958500,$IIGSA,A,1,05,13,15,18,20,23,24,29,30,44,46,48,1.16,0.66,0.96,*3B
20231028T124122992771,$GPGSV,1,1,01,18,90,000,17*4E
20231028T124123297833,$IIGLL,,,,,,V,N*73
20231028T124123341333,$IIZDA,,,,,,*5F
20231028T124123947615,$IIDPT,3.68,1.09,*69
20231028T124123965616,$IIGSA,A,1,05,13,15,18,20,23,24,29,30,44,46,48,1.16,0.66,0.96,*3B
20231028T124124008413,$GPGSV,1,1,01,18,90,000,17*4E
20231028T124124298315,$IIGLL,,,,,,V,N*73
20231028T124124344462,$IIZDA,,,,,,*5F
20231028T124125009062,$GPGSV,1,1,01,18,90,000,21*4B
20231028T124125026246,$IIGSA,M,1,,,,,,,,,,,,,,,,*29
20231028T124125299588,$IIGLL,,,,,,V,N*73
20231028T124125361809,$IIZDA,,,,,,*5F
20231028T124125977723,$IIDPT,4.32,1.09,*61
20231028T124126012621,$GPGSV,1,1,01,18,90,000,21*4B
20231028T124126028093,$IIGSA,M,1,,,,,,,,,,,,,,,,*29
20231028T124126301292,$IIGLL,,,,,,V,N*73
20231028T124126363371,$IIZDA,,,,,,*5F
20231028T124126980174,$IIDPT,3.87,1.09,*68
20231028T124127013968,$GPGSV,1,1,01,18,90,000,23*49
20231028T124127029791,$IIGSA,M,1,,,,,,,,,,,,,,,,*29
20231028T124127364456,$IIGLL,3926.88557,N,07603.07238,W,,V,N*5F
20231028T124127380618,$IIZDA,,,,,,*5F
20231028T124127981850,$IIDPT,3.78,1.09,*68
20231028T124128015072,$GPGSV,1,1,01,18,90,000,23*49
20231028T124128030469,$IIGSA,M,1,,,,,,,,,,,,,,,,*29
20231028T124128381077,$IIZDA,,,,,,*5F
20231028T124128413354,$IIGLL,,,,,,V,N*73
20231028T124129000872,$IIDPT,4.28,1.09,*6A
20231028T124129019486,$GPGSV,1,1,01,18,90,000,20*4A
20231028T124129031874,$IIGSA,M,1,,,,,,,,,,,,,,,,*29
20231028T124129405618,$IIZDA,,,,,,*5F
20231028T124129431778,$IIGLL,,,,,,V,N*73
20231028T124130016465,$IIDPT,3.68,1.09,*69
20231028T124130033390,$GPGSV,1,1,01,18,90,000,20*4A
20231028T124130050021,$IIGSA,M,1,,,,,,,,,,,,,,,,*29
20231028T124130411875,$IIZDA,,,,,,*5F
20231028T124130433689,$IIGLL,,,,,,V,N*73
20231028T124131017898,$IIDPT,4.18,1.09,*69
20231028T124131035242,$GPGSV,1,1,01,18,90,000,15*4C
20231028T124131050782,$IIGSA,M,1,,,,,,,,,,,,,,,,*29
20231028T124131427626,$IIZDA,,,,,,*5F
20231028T124131450479,$IIGLL,,,,,,V,N*73
20231028T124132021746,$IIDPT,3.6,1.09,*51
20231028T124132052994,$GPGSV,1,1,01,18,90,000,15*4C
20231028T124132068430,$IIGSA,M,1,,,,,,,,,,,,,,,,*29
20231028T124132496641,$IIGLL,,,,,,V,N*73
20231028T124132517385,$IIZDA,,,,,,*5F
20231028T124133041359,$IIDPT,3.99,1.09,*67
20231028T124133058531,$GPGSV,1,1,01,18,90,000,18*41
20231028T124133069061,$IIGSA,M,1,,,,,,,,,,,,,,,,*29
20231028T124133496929,$IIGLL,,,,,,V,N*73
20231028T124133536701,$IIZDA,,,,,,*5F
20231028T124134042318,$IIDPT,3.73,1.09,*63
20231028T124134062280,$GPGSV,1,1,01,18,90,000,18*41
20231028T124134086350,$IIGSA,M,1,,,,,,,,,,,,,,,,*29
20231028T124134498496,$IIGLL,,,,,,V,N*73
20231028T124134537613,$IIZDA,,,,,,*5F
20231028T124135047266,$IIDPT,3.99,1.09,*67
20231028T124135498921,$IIGLL,,,,,,V,N*73
20231028T124135538471,$IIZDA,,,,,,*5F
20231028T124135874532,$GPGSV,5,1,18,05,44,063,45,13,57,061,43,15,78,205,38,18,49,314,43*77
20231028T124135907384,$IIGSA,A,1,05,13,15,18,20,23,24,29,30,44,46,48,1.16,0.66,0.96,*3B
20231028T124136054490,$IIDPT,4.19,1.09,*68
20231028T124136499547,$IIGLL,,,,,,V,N*73
20231028T124136554686,$IIZDA,,,,,,*5F
20231028T124136875443,$GPGSV,5,1,18,05,44,063,45,13,57,061,43,15,78,205,38,18,49,314,43*77
20231028T124136909814,$IIGSA,A,1,05,13,15,18,20,23,24,29,30,44,46,48,1.16,0.66,0.96,*3B
20231028T124137069096,$IIDPT,3.78,1.09,*68
20231028T124137501760,$IIGLL,,,,,,V,N*73
20231028T124137572983,$IIZDA,,,,,,*5F
20231028T124137878402,$GPGSV,5,1,18,05,43,063,45,13,57,061,42,15,78,205,37,18,49,314,44*79
20231028T124137957483,$IIGSA,A,1,05,13,15,18,20,23,24,29,30,46,48,65,1.18,0.67,0.96,*37
20231028T124138074675,$IIDPT,3.91,1.09,*6F
20231028T124138548668,$IIGLL,3926.89248,N,07603.06931,W,,V,N*54
20231028T124138582438,$IIZDA,,,,,,*5F
20231028T124138895278,$GPGSV,5,1,18,05,43,063,45,13,57,061,42,15,78,205,37,18,49,314,44*79
20231028T124138959201,$IIGSA,A,1,05,13,15,18,20,23,24,29,30,46,48,65,1.16,0.66,0.96,*38
20231028T124139089449,$IIDPT,4.08,1.09,*68
20231028T124139549619,$IIGLL,3926.89325,N,07603.06893,W,,V,N*57
20231028T124139582922,$IIZDA,,,,,,*5F
20231028T124140083668,$GPGSV,1,1,01,18,90,000,14*4D
20231028T124140099288,$IIGSA,M,1,,,,,,,,,,,,,,,,*29
20231028T124140127031,$IIDPT,4.07,1.09,*67
20231028T124140551100,$IIGLL,3926.89363,N,07603.06854,W,,V,N*5E
20231028T124140592699,$IIZDA,,,,,,*5F
20231028T124141085537,$GPGSV,1,1,01,18,90,000,13*4A
20231028T124141101158,$IIGSA,M,1,,,,,,,,,,,,,,,,*29
20231028T124141128597,$IIDPT,3.45,1.09,*66
20231028T124141552338,$IIGLL,3926.89402,N,07603.06778,W,,V,N*5F
20231028T124141594832,$IIZDA,,,,,,*5F
20231028T124142598964,$IIGLL,,,,,,V,N*73
20231028T124142614589,$IIZDA,,,,,,*5F
20231028T124142884203,$GPGSV,5,1,18,05,43,063,38,11,04,128,36,13,57,061,36,15,78,205,32*7D
20231028T124142902418,$IIGSA,A,1,05,13,15,18,20,23,24,29,30,44,65,66,1.24,0.69,1.02,*34
20231028T124143105294,$IIDPT,3.77,1.09,*67
20231028T124143601604,$IIGLL,,,,,,V,N*73
20231028T124143617214,$IIZDA,,,,,,*5F
20231028T124143885309,$GPGSV,5,1,18,05,43,063,42,11,04,128,37,13,57,061,40,15,78,205,35*77
20231028T124143903279,$IIGSA,A,1,05,13,15,18,20,23,24,29,30,44,65,66,1.24,0.69,1.02,*34
20231028T124144122085,$IIDPT,4.11,1.09,*60
20231028T124144601867,$IIGLL,,,,,,V,N*73
20231028T124144619399,$IIZDA,,,,,,*5F
20231028T124144887408,$GPGSV,5,1,18,05,43,063,42,11,04,128,37,13,57,061,40,15,78,205,35*77
20231028T124144905106,$IIGSA,A,1,05,13,15,18,20,23,24,29,30,44,65,66,1.24,0.69,1.02,*34
20231028T124145122545,$IIDPT,3.37,1.09,*63
20231028T124145632679,$IIZDA,,,,,,*5F
20231028T124145650114,$IIGLL,3926.89613,N,07603.06547,W,,V,N*53
20231028T124145889191,$GPGSV,5,1,18,05,43,063,42,13,57,061,38,15,78,205,38,18,49,314,48*70
20231028T124145964778,$IIGSA,A,1,05,13,15,18,20,23,24,29,30,44,65,66,1.24,0.69,1.02,*34
20231028T124146143778,$IIDPT,3.18,1.09,*6E
20231028T124146653590,$IIZDA,,,,,,*5F
20231028T124146670684,$IIGLL,3926.89632,N,07603.0647,W,,V,N*65
20231028T124146890615,$GPGSV,5,1,18,05,43,063,42,13,57,061,38,15,78,205,38,18,49,314,48*70
20231028T124147108569,$IIGSA,M,1,,,,,,,,,,,,,,,,*29
20231028T124147150413,$IIDPT,4.07,1.09,*67
20231028T124147665614,$IIZDA,,,,,,*5F
20231028T124147700673,$IIGLL,,,,,,V,N*73
20231028T124148114244,$GPGSV,1,1,01,18,90,000,12*4B
20231028T124148129873,$IIGSA,M,1,,,,,,,,,,,,,,,,*29
20231028T124148167369,$IIDPT,3.64,1.09,*65
20231028T124148669107,$IIZDA,,,,,,*5F
20231028T124148701677,$IIGLL,,,,,,V,N*73
20231028T124149114259,$GPGSV,1,1,01,18,90,000,15*4C
20231028T124149132234,$IIGSA,M,1,,,,,,,,,,,,,,,,*29
20231028T124149185109,$IIDPT,3.49,1.09,*6A
20231028T124149671471,$IIZDA,,,,,,*5F
20231028T124149703301,$IIGLL,,,,,,V,N*73
20231028T124150115541,$GPGSV,1,1,01,18,90,000,15*4C
20231028T124150133651,$IIGSA,M,1,,,,,,,,,,,,,,,,*29
20231028T124150186964,$IIDPT,2.66,1.09,*66
20231028T124150685554,$IIZDA,,,,,,*5F
20231028T124150720428,$IIGLL,,,,,,V,N*73
20231028T124151117875,$GPGSV,1,1,01,18,90,000,15*4C
20231028T124151150527,$IIGSA,M,1,,,,,,,,,,,,,,,,*29
20231028T124151202686,$IIDPT,3.91,1.09,*6F
20231028T124151686949,$IIZDA,,,,,,*5F
20231028T124151720777,$IIGLL,,,,,,V,N*73
20231028T124152118476,$GPGSV,1,1,01,18,90,000,15*4C
20231028T124152205433,$IIDPT,4.07,1.09,*67
20231028T124152687183,$IIZDA,,,,,,*5F
20231028T124152755308,$IIGLL,3926.89862,N,07603.06048,W,,V,N*51
20231028T124152949425,$IIGSA,A,1,05,13,15,18,20,23,24,29,30,44,65,66,1.24,0.69,1.02,*34
20231028T124153133178,$GPGSV,1,1,01,18,90,000,13*4A
20231028T124153215703,$IIDPT,3.66,1.09,*67
20231028T124153688803,$IIZDA,,,,,,*5F
20231028T124153757766,$IIGLL,3926.8992,N,07603.05971,W,,V,N*66
20231028T124153950187,$IIGSA,A,1,05,13,15,18,20,23,24,29,30,44,65,66,1.24,0.69,1.02,*34
20231028T124154135380,$GPGSV,1,1,01,18,90,000,13*4A
20231028T124154224281,$IIDPT,4.01,1.09,*61
20231028T124154689365,$IIZDA,,,,,,*5F
20231028T124154789852,$IIGLL,,,,,,V,N*73
20231028T124154954758,$IIGSA,A,1,05,13,15,18,20,23,24,29,30,44,65,66,1.24,0.69,1.02,*34
20231028T124155137163,$GPGSV,1,1,01,18,90,000,10*49
20231028T124155230712,$IIDPT,3.97,1.09,*69
20231028T124155693241,$IIZDA,,,,,,*5F
20231028T124155801665,$IIGLL,,,,,,V,N*73
20231028T124155956086,$IIGSA,A,1,05,13,15,18,20,23,24,29,30,44,65,66,1.24,0.69,1.02,*34
20231028T124156137258,$GPGSV,1,1,01,18,90,000,10*49
20231028T124156235623,$IIDPT,3.47,1.09,*64
20231028T124156721883,$IIZDA,,,,,,*5F
20231028T124156856750,$IIGLL,3926.89999,N,07603.05751,W,124154.899,A,D*54
20231028T124156963573,$IIGSA,A,1,05,13,15,18,20,23,24,29,30,44,65,66,1.24,0.69,1.02,*34
20231028T124157138381,$GPGSV,1,1,01,18,90,000,08*40
20231028T124157243010,$IIDPT,3.37,1.09,*63
20231028T124157740158,$IIZDA,,,,,,*5F
20231028T124157859137,$IIGLL,3926.9004,N,07603.05668,W,124155.899,A,D*6B
20231028T124158149529,$GPGSV,1,1,01,18,90,000,08*40
20231028T124158167069,$IIGSA,M,1,,,,,,,,,,,,,,,,*29
20231028T124158249838,$IIDPT,3.27,1.09,*62
20231028T124158756444,$IIZDA,,,,,,*5F
20231028T124158861781,$IIGLL,3926.90061,N,07603.05586,W,124156.899,A,D*58
20231028T124159151000,$GPGSV,1,1,01,18,90,000,12*4B
20231028T124159178410,$IIGSA,M,1,,,,,,,,,,,,,,,,*29
20231028T124159758494,$IIZDA,,,,,,*5F
20231028T124159892625,$IIGLL,,,,,,V,N*73
20231028T124200153657,$GPGSV,1,1,01,18,90,000,12*4B
20231028T124200179679,$IIGSA,M,1,,,,,,,,,,,,,,,,*29
20231028T124200261446,$IIDPT,3.93,1.09,*6D
20231028T124200774817,$IIZDA,,,,,,*5F
20231028T124200894701,$IIGLL,,,,,,V,N*73
20231028T124201156284,$GPGSV,1,1,01,18,90,000,14*4D
20231028T124201180008,$IIGSA,M,1,,,,,,,,,,,,,,,,*29
20231028T124201275761,$IIDPT,3.8,1.09,*5F
20231028T124201776752,$IIZDA,,,,,,*5F
20231028T124201896021,$IIGLL,,,,,,V,N*73
20231028T124202280609,$IIDPT,3.78,1.09,*68
20231028T124202791251,$IIZDA,,,,,,*5F
20231028T124202890809,$GPGSV,5,1,18,05,43,063,44,13,57,061,44,15,78,205,40,18,49,314,51*7A
20231028T124202916344,$IIGLL,,,,,,V,N*73
20231028T124202965069,$IIGSA,A,1,05,13,15,18,20,23,24,29,30,44,65,66,1.24,0.69,1.03,*35
20231028T124203284021,$IIDPT,3.85,1.09,*6A
20231028T124203963480,$IIGLL,3926.90189,N,07603.05126,W,,V,N*5F
20231028T124203980900,$IIGSA,A,1,05,13,15,18,20,23,24,29,30,44,65,66,1.24,0.69,1.03,*35
20231028T124204178540,$GPGSV,1,1,01,18,90,000,14*4D
20231028T124204263669,$IIZDA,124202.299,28,10,2023,-01,59*6C
20231028T124204997698,$IIGLL,,,,,,V,N*73
20231028T124205178415,$IIGSA,M,1,,,,,,,,,,,,,,,,*29
20231028T124205264695,$IIZDA,124203.299,28,10,2023,-01,59*6D
20231028T124205301403,$IIDPT,3.83,1.09,*6C
20231028T124205888488,$GPGSV,5,1,18,05,43,063,46,13,57,061,45,15,78,205,40,18,49,314,50*78
20231028T124206001220,$IIGLL,,,,,,V,N*73
20231028T124206180602,$IIGSA,M,1,,,,,,,,,,,,,,,,*29
20231028T124206264701,$IIZDA,124204.299,28,10,2023,,*4A
20231028T124206303509,$IIDPT,3.83,1.09,*6C
20231028T124206889012,$GPGSV,5,2,18,20,15,084,37,23,29,280,38,24,16,161,46,29,41,219,51*77
20231028T124207001952,$IIGLL,,,,,,V,N*73
20231028T124207181689,$IIGSA,M,1,,,,,,,,,,,,,,,,*29
20231028T124207317840,$IIDPT,3.79,1.09,*69
20231028T124207687508,$IIZDA,,,,,,*5F
20231028T124208055680,$IIGLL,3926.90246,N,07603.04781,W,,V,N*55
20231028T124208185811,$GPGSV,1,1,01,18,90,000,09*41
20231028T124208220234,$IIGSA,M,1,,,,,,,,,,,,,,,,*29
20231028T124208325652,$IIDPT,3.79,1.09,*69
20231028T124208687522,$IIZDA,,,,,,*5F
20231028T124209056467,$IIGLL,3926.90285,N,07603.04704,W,,V,N*57
20231028T124209188456,$GPGSV,1,1,01,18,90,000,08*40
20231028T124209688809,$IIZDA,,,,,,*5F
20231028T124209962585,$IIGSA,A,1,05,13,15,18,23,24,29,30,44,65,66,67,1.29,0.72,1.08,*3A
20231028T124210063867,$IIGLL,3926.90304,N,07603.04589,W,,V,N*58
20231028T124210344493,$IIDPT,3.76,1.09,*66
20231028T124210690359,$IIZDA,,,,,,*5F
20231028T124210885931,$GPGSV,5,1,18,05,43,064,42,11,04,128,31,13,57,061,42,15,79,205,34*74
20231028T124210963954,$IIGSA,A,1,05,13,15,18,23,24,29,30,44,65,66,67,1.29,0.72,1.08,*3A
20231028T124211090626,$IIGLL,,,,,,V,N*73
20231028T124211693144,$IIZDA,,,,,,*5F
20231028T124211886252,$GPGSV,5,1,18,05,43,064,46,11,04,128,31,13,57,061,44,15,79,205,35*77
20231028T124212100070,$IIGLL,,,,,,V,N*73
20231028T124212206792,$IIGSA,M,1,,,,,,,,,,,,,,,,*29
20231028T124212358333,$IIDPT,3.69,1.09,*68
20231028T124212697119,$IIZDA,,,,,,*5F
20231028T124213152889,$IIGLL,3926.90342,N,07603.04282,W,,V,N*56
20231028T124213209078,$GPGSV,1,1,01,18,90,000,08*40
20231028T124213242943,$IIGSA,M,1,,,,,,,,,,,,,,,,*29
20231028T124213358753,$IIDPT,3.72,1.09,*62
20231028T124213757288,$IIZDA,,,,,,*5F
20231028T124214158010,$IIGLL,3926.90362,N,07603.04166,W,,V,N*5D
20231028T124214209415,$GPGSV,1,1,01,18,90,000,08*40
20231028T124214360911,$IIDPT,3.71,1.09,*61
20231028T124214757785,$IIZDA,,,,,,*5F
20231028T124214892272,$IIGSA,A,1,05,13,15,18,20,23,24,29,30,44,48,65,1.2,0.67,0.99,*01
20231028T124215198295,$IIGLL,,,,,,V,N*73
20231028T124215216698,$GPGSV,1,1,01,18,90,000,08*40
20231028T124215362279,$IIDPT,3.68,1.09,*69
20231028T124215773569,$IIZDA,,,,,,*5F
20231028T124215894451,$IIGSA,A,1,05,13,15,18,20,23,24,29,30,44,48,65,1.2,0.67,0.99,*01
20231028T124216198924,$IIGLL,,,,,,V,N*73
20231028T124216216800,$GPGSV,1,1,01,18,90,000,08*40
20231028T124216379270,$IIDPT,3.62,1.09,*63
20231028T124216777200,$IIZDA,,,,,,*5F
20231028T124216894920,$IIGSA,A,1,05,13,15,18,20,23,24,29,30,44,48,65,1.2,0.67,0.99,*01
20231028T124217199861,$IIGLL,,,,,,V,N*73
20231028T124217230046,$GPGSV,1,1,01,18,90,000,08*40
20231028T124217381400,$IIDPT,3.64,1.09,*65
20231028T124217778497,$IIZDA,,,,,,*5F
20231028T124217895636,$IIGSA,A,1,05,13,15,18,20,23,24,29,30,44,48,65,1.2,0.67,0.99,*01
20231028T124218202170,$IIGLL,,,,,,V,N*73
20231028T124218231041,$GPGSV,1,1,01,18,90,000,08*40
20231028T124218398348,$IIDPT,3.64,1.09,*65
20231028T124218794718,$IIZDA,,,,,,*5F
20231028T124218898978,$IIGSA,A,1,05,13,15,18,20,23,24,29,30,44,48,65,1.2,0.67,0.99,*01
20231028T124219231179,$GPGSV,1,1,01,18,90,000,08*40
20231028T124219264975,$IIGLL,3926.90458,N,07603.03744,W,,V,N*52
20231028T124219399357,$IIDPT,3.62,1.09,*63
20231028T124219812196,$IIZDA,,,,,,*5F
20231028T124219961815,$IIGSA,A,1,05,13,15,18,20,23,24,29,30,44,48,65,1.2,0.67,0.99,*01
20231028T124220239262,$GPGSV,1,1,01,18,90,000,08*40
20231028T124220271824,$IIGLL,3926.90458,N,07603.03629,W,,V,N*58
20231028T124220419465,$IIDPT,3.6,1.09,*51
20231028T124220814376,$IIZDA,,,,,,*5F
20231028T124220964006,$IIGSA,A,1,05,13,15,18,20,23,24,29,30,44,48,65,1.2,0.67,0.99,*01
20231028T124221300824,$IIGLL,,,,,,V,N*73
20231028T124221426519,$IIDPT,3.58,1.09,*6A
20231028T124221816218,$IIZDA,,,,,,*5F
20231028T124221884928,$GPGSV,5,1,18,05,43,064,46,13,57,061,45,15,79,205,39,18,49,314,51*71
20231028T124222351003,$IIGLL,3926.90515,N,07603.03398,W,,V,N*5F
20231028T124222826393,$IIZDA,,,,,,*5F
20231028T124222886115,$GPGSV,5,1,18,05,43,064,46,13,57,061,45,15,79,205,39,18,49,314,51*71
20231028T124222903752,$IIGSA,A,1,05,13,15,18,20,23,24,29,30,44,48,65,1.2,0.67,0.99,*01
20231028T124223351941,$IIGLL,3926.90534,N,07603.03322,W,,V,N*5D
20231028T124223433434,$IIDPT,3.49,1.09,*6A
20231028T124223927989,$IIZDA,,,,,,*5F
20231028T124223953109,$IIGSA,A,1,05,13,15,18,20,23,24,29,30,44,48,65,1.2,0.67,0.99,*01
20231028T124224354501,$IIGLL,3926.90534,N,07603.03206,W,,V,N*5A
20231028T124224448783,$IIDPT,3.49,1.09,*6A
20231028T124224883376,$GPGSV,5,1,18,05,43,064,44,13,57,061,43,15,79,205,37,18,49,314,49*72
20231028T124224937099,$IIZDA,,,,,,*5F
20231028T124224955304,$IIGSA,A,1,05,13,15,18,20,23,24,29,30,44,48,65,1.2,0.67,0.99,*01
20231028T124225354691,$IIGLL,3926.90554,N,07603.03091,W,,V,N*50
20231028T124225452789,$IIDPT,3.48,1.09,*6B
20231028T124225883476,$GPGSV,5,1,18,05,43,064,43,13,57,060,43,15,79,205,36,18,49,314,48*74
20231028T124225939671,$IIZDA,,,,,,*5F
20231028T124225956077,$IIGSA,A,1,05,13,15,18,20,23,24,29,30,44,48,65,1.2,0.67,0.99,*01
20231028T124226356135,$IIGLL,3926.90573,N,07603.02976,W,,V,N*54
20231028T124226452829,$IIDPT,3.45,1.09,*66
20231028T124226883958,$GPGSV,5,1,18,05,43,064,43,13,57,060,43,15,79,205,36,18,49,314,48*74
20231028T124226963585,$IIGSA,A,1,05,13,15,18,20,23,24,29,30,44,48,65,1.26,0.71,1.05,*34
20231028T124227263666,$IIZDA,124225.299,28,10,2023,-01,59*69
20231028T124227390996,$IIGLL,,,,,,V,N*73
20231028T124227456215,$IIDPT,3.47,1.09,*64
20231028T124227886609,$GPGSV,5,1,18,05,43,064,44,13,57,060,43,15,79,205,36,18,49,314,48*73
20231028T124228391349,$IIGLL,,,,,,V,N*73
20231028T124228458243,$IIDPT,3.41,1.09,*62
20231028T124228699285,$IIZDA,,,,,,*5F
20231028T124228964748,$IIGSA,A,1,05,13,15,18,23,24,29,30,44,48,65,66,1.26,0.71,1.05,*36
20231028T124229392979,$IIGLL,,,,,,V,N*73
20231028T124229475756,$IIDPT,3.41,1.09,*62
20231028T124229700583,$IIZDA,,,,,,*5F
20231028T124229886559,$GPGSV,5,1,18,05,43,064,44,13,57,060,43,15,79,205,36,18,49,314,49*72
20231028T124230394146,$IIGLL,,,,,,V,N*73
20231028T124230484250,$IIDPT,3.41,1.09,*62
20231028T124230701917,$IIZDA,,,,,,*5F
20231028T124230887183,$GPGSV,5,1,18,05,43,064,44,13,57,060,43,15,79,205,36,18,49,314,49*72
20231028T124230964693,$IIGSA,A,1,05,13,15,18,23,24,29,30,44,48,65,66,1.26,0.71,1.05,*36
20231028T124231394723,$IIGLL,,,,,,V,N*73
20231028T124231489629,$IIDPT,3.37,1.09,*63
20231028T124231702933,$IIZDA,,,,,,*5F
20231028T124231887815,$GPGSV,5,1,18,05,43,064,45,13,57,060,45,15,79,205,38,18,49,314,50*73
20231028T124231965231,$IIGSA,A,1,05,13,15,18,23,24,29,30,44,48,65,66,1.26,0.71,1.05,*36
20231028T124232395415,$IIGLL,,,,,,V,N*73
20231028T124232495821,$IIDPT,3.35,1.09,*61
20231028T124232703515,$IIZDA,,,,,,*5F
20231028T124232889058,$GPGSV,5,2,18,23,29,280,37,24,17,161,47,29,41,219,51,30,10,042,35*74
20231028T124233396818,$IIGLL,,,,,,V,N*73
20231028T124233886463,$IIZDA,,,,,,*5F
20231028T124233963487,$IIGSA,A,1,05,13,15,18,23,24,29,30,44,48,65,66,1.26,0.71,1.05,*36
20231028T124234397859,$IIGLL,,,,,,V,N*73
20231028T124234507799,$IIDPT,3.3,1.09,*54
20231028T124234881509,$GPGSV,5,1,18,05,43,064,44,13,57,060,43,15,79,205,36,18,49,314,48*73
20231028T124234914830,$IIZDA,,,,,,*5F
20231028T124234964402,$IIGSA,A,1,05,13,15,18,23,24,29,30,44,48,65,66,1.26,0.71,1.05,*36
20231028T124235398940,$IIGLL,,,,,,V,N*73
20231028T124235513757,$IIDPT,3.3,1.09,*54
20231028T124235882065,$GPGSV,5,1,18,05,43,064,45,11,04,128,36,13,57,060,44,15,79,205,37*70
20231028T124235915807,$IIZDA,,,,,,*5F
20231028T124235965740,$IIGSA,A,1,05,13,15,18,23,24,29,30,44,48,65,66,1.26,0.71,1.05,*36
20231028T124236399555,$IIGLL,,,,,,V,N*73
20231028T124236514762,$IIDPT,3.25,1.09,*60
20231028T124237006316,$IIZDA,,,,,,*5F
20231028T124237401061,$IIGLL,,,,,,V,N*73
20231028T124237515469,$IIDPT,3.25,1.09,*60
20231028T124237883091,$GPGSV,5,1,18,05,43,064,45,13,57,060,45,15,79,205,39,18,49,314,50*72
20231028T124237950848,$IIGSA,A,1,05,13,15,18,23,24,29,30,44,48,65,66,1.26,0.71,1.05,*36
20231028T124238018201,$IIZDA,,,,,,*5F
20231028T124238401713,$IIGLL,,,,,,V,N*73
20231028T124238532295,$IIDPT,3.24,1.09,*61
20231028T124238885978,$GPGSV,5,1,18,05,43,064,45,13,57,060,45,15,79,205,39,18,49,314,50*72
20231028T124238951826,$IIGSA,A,1,05,13,15,18,23,24,29,30,44,48,65,66,1.26,0.71,1.05,*36
20231028T124239018872,$IIZDA,,,,,,*5F
20231028T124239402393,$IIGLL,,,,,,V,N*73
20231028T124239533918,$IIDPT,3.22,1.09,*67
20231028T124239886332,$GPGSV,5,1,18,05,43,064,42,13,57,060,41,15,79,205,35,18,49,314,45*79
20231028T124239952820,$IIGSA,A,1,05,13,15,18,20,23,24,29,30,44,48,65,1.2,0.67,0.99,*01
20231028T124240035785,$IIZDA,,,,,,*5F
20231028T124240403701,$IIGLL,,,,,,V,N*73
20231028T124240534944,$IIDPT,3.11,1.09,*67
20231028T124240886412,$GPGSV,5,1,18,05,43,064,42,13,57,060,41,15,79,205,35,18,49,314,45*79
20231028T124240954137,$IIGSA,A,1,05,13,15,18,20,23,24,29,30,44,48,65,1.2,0.67,0.99,*01
20231028T124241041685,$IIZDA,,,,,,*5F
20231028T124241403869,$IIGLL,,,,,,V,N*73
20231028T124241551060,$IIDPT,3.13,1.09,*65
20231028T124241889317,$GPGSV,5,1,18,05,43,064,42,13,57,060,41,15,79,205,34,18,49,314,46*7B
20231028T124241955003,$IIGSA,A,1,05,13,15,18,20,23,24,29,30,44,48,65,1.2,0.67,0.99,*01
20231028T124242048007,$IIZDA,,,,,,*5F
20231028T124242442777,$IIGLL,,,,,,V,N*73
20231028T124242554692,$IIDPT,3.16,1.09,*60
20231028T124242889534,$GPGSV,5,2,18,20,15,084,32,23,29,280,35,24,17,161,43,29,41,219,47*7C
20231028T124242955584,$IIGSA,A,1,05,13,15,18,20,23,24,29,30,44,48,65,1.2,0.67,0.99,*01
20231028T124243051734,$IIZDA,,,,,,*5F
20231028T124243444784,$IIGLL,,,,,,V,N*73
20231028T124243555216,$IIDPT,3.15,1.09,*63
20231028T124243891355,$GLGSV,5,4,18,65,36,035,44,66,72,303,43,67,28,241,38,81,75,307,45*66
20231028T124243956701,$IIGSA,A,1,05,13,15,18,20,23,24,29,30,44,48,65,1.2,0.67,0.99,*01
20231028T124244059817,$IIZDA,,,,,,*5F
20231028T124244446831,$IIGLL,,,,,,V,N*73
20231028T124244555693,$IIDPT,3.14,1.09,*62
20231028T124245065114,$IIZDA,,,,,,*5F
20231028T124245448774,$IIGLL,,,,,,V,N*73
20231028T124245573538,$IIDPT,3.06,1.09,*61
20231028T124245879132,$GPGSV,5,1,18,05,43,064,45,13,57,060,44,15,79,205,36,18,49,314,48*75
20231028T124245908482,$IIGSA,A,1,05,13,15,18,20,23,24,29,30,44,48,65,1.2,0.67,0.99,*01
20231028T124246071047,$IIZDA,,,,,,*5F
20231028T124246458001,$IIGLL,3926.90995,N,07603.00826,W,,V,N*56
20231028T124246575253,$IIDPT,3.08,1.09,*6F
20231028T124246881632,$GPGSV,5,1,18,05,43,064,45,13,57,060,44,15,79,205,36,18,49,314,48*75
20231028T124246964548,$IIGSA,A,1,05,13,15,18,20,23,24,29,30,44,48,65,1.2,0.67,0.99,*01
20231028T124247075983,$IIZDA,,,,,,*5F
20231028T124247458369,$IIGLL,3926.91014,N,07603.0071,W,,V,N*6D
20231028T124247576278,$IIDPT,3.06,1.09,*61
20231028T124248084991,$IIZDA,,,,,,*5F
20231028T124248460336,$IIGLL,3926.91034,N,07603.00595,W,,V,N*50
20231028T124248592945,$IIDPT,3.06,1.09,*61
20231028T124248882131,$GPGSV,5,1,18,05,43,064,47,13,57,060,47,15,79,205,41,18,49,314,52*7F
20231028T124248900045,$IIGSA,A,1,05,13,15,18,20,23,24,29,30,44,48,65,1.2,0.67,0.99,*01
20231028T124249089013,$IIZDA,,,,,,*5F
20231028T124249460434,$IIGLL,3926.91053,N,07603.0048,W,,V,N*64
20231028T124249593920,$IIDPT,3.04,1.09,*63
20231028T124249883861,$GPGSV,5,1,18,05,43,064,44,13,57,060,45,15,79,205,38,18,49,314,49*7A
20231028T124249901788,$IIGSA,A,1,05,13,15,18,20,23,24,29,30,44,48,65,1.2,0.67,0.99,*01
20231028T124250090127,$IIZDA,,,,,,*5F
20231028T124250462152,$IIGLL,3926.91072,N,07603.00403,W,,V,N*5C
20231028T124250610359,$IIDPT,3.03,1.09,*64
20231028T124250885035,$GPGSV,5,1,18,05,43,064,44,13,57,060,45,15,79,205,38,18,49,314,49*7A
20231028T124250903448,$IIGSA,A,1,05,13,15,18,20,23,24,29,30,44,48,65,1.2,0.67,0.99,*01
20231028T124251106422,$IIZDA,,,,,,*5F
20231028T124251463567,$IIGLL,3926.9111,N,07603.0025,W,,V,N*59
20231028T124251610893,$IIDPT,3,1.09,*49
20231028T124251886979,$GPGSV,5,1,18,05,43,064,45,13,57,060,44,15,79,205,37,18,49,314,49*75
20231028T124251904995,$IIGSA,A,1,05,13,15,18,20,23,24,29,30,44,48,65,1.2,0.67,0.99,*01
20231028T124252107265,$IIZDA,,,,,,*5F
20231028T124252463903,$IIGLL,3926.9113,N,07603.00096,W,,V,N*63
20231028T124252612766,$IIDPT,3,1.09,*49
20231028T124252949770,$IIGSA,A,1,05,13,15,18,20,23,24,29,30,44,48,65,1.2,0.67,0.99,*01
20231028T124253112639,$IIZDA,,,,,,*5F
20231028T124253495393,$IIGLL,,,,,,V,N*73
20231028T124253614979,$IIDPT,2.96,1.09,*69
20231028T124253888927,$GPGSV,5,1,18,05,43,064,44,13,57,060,44,15,79,205,36,18,49,314,48*74
20231028T124253950274,$IIGSA,A,1,05,13,15,18,20,23,24,29,30,44,48,65,1.2,0.67,0.99,*01
20231028T124254114021,$IIZDA,,,,,,*5F
20231028T124254497380,$IIGLL,,,,,,V,N*73
20231028T124254615369,$IIDPT,2.97,1.09,*68
20231028T124254889548,$GPGSV,5,2,18,20,15,084,32,23,29,280,34,24,17,161,45,29,41,219,50*7D
20231028T124254951285,$IIGSA,A,1,05,13,15,18,20,23,24,29,30,44,48,65,1.2,0.67,0.99,*01
20231028T124255115088,$IIZDA,,,,,,*5F
20231028T124255497461,$IIGLL,,,,,,V,N*73
20231028T124255632247,$IIDPT,2.97,1.09,*68
20231028T124255890642,$GPGSV,5,2,18,20,15,084,33,23,29,280,36,24,17,161,45,29,41,219,50*7E
20231028T124255951894,$IIGSA,A,1,05,13,15,18,20,23,24,29,30,44,48,65,1.2,0.67,0.99,*01
20231028T124256130307,$IIZDA,,,,,,*5F
20231028T124256499719,$IIGLL,,,,,,V,N*73
20231028T124256633336,$IIDPT,2.93,1.09,*6C
20231028T124256955289,$IIGSA,A,1,05,13,15,18,20,23,24,29,30,44,48,65,1.2,0.67,0.99,*01
20231028T124257131311,$IIZDA,,,,,,*5F
20231028T124257561949,$IIGLL,3926.91245,N,07602.9952,W,,V,N*6B
20231028T124257647664,$IIDPT,2.91,1.09,*6E
20231028T124257879500,$GPGSV,5,1,18,05,43,064,44,13,57,060,42,15,79,205,36,18,50,314,47*75
20231028T124257964298,$IIGSA,A,1,05,13,15,18,20,23,24,29,30,44,48,65,1.2,0.67,0.99,*01
20231028T124258133486,$IIZDA,,,,,,*5F
20231028T124258563188,$IIGLL,3926.91245,N,07602.99405,W,,V,N*5D
20231028T124258655458,$IIDPT,2.89,1.09,*67
20231028T124259146978,$IIZDA,,,,,,*5F
20231028T124259563950,$IIGLL,3926.91264,N,07602.9929,W,,V,N*64
20231028T124259670580,$IIDPT,2.8,1.09,*5E
20231028T124259883276,$GPGSV,5,1,18,05,43,064,48,13,57,060,44,15,79,205,41,18,50,314,51*78
20231028T124259904102,$IIGSA,A,1,05,13,15,18,20,23,24,29,30,44,48,65,1.2,0.67,0.99,*01
20231028T124300162661,$IIZDA,,,,,,*5F
20231028T124300599263,$IIGLL,,,,,,V,N*73
20231028T124300679504,$IIDPT,2.91,1.09,*6E
20231028T124300884446,$GPGSV,5,1,18,05,43,064,48,13,57,060,44,15,79,205,41,18,50,314,51*78
20231028T124300964558,$IIGSA,A,1,05,13,15,18,20,23,24,29,30,44,48,65,1.2,0.67,0.99,*01
20231028T124301168078,$IIZDA,,,,,,*5F
20231028T124301656467,$IIGLL,3926.91302,N,07602.99021,W,,V,N*5D
20231028T124302180908,$IIZDA,,,,,,*5F
20231028T124302660907,$IIGLL,3926.91322,N,07602.98906,W,,V,N*52
20231028T124302691924,$IIDPT,2.85,1.09,*6B
20231028T124302886503,$GPGSV,5,1,18,05,43,064,44,13,57,060,41,15,79,205,37,18,50,314,47*77
20231028T124302904649,$IIGSA,A,1,05,13,15,18,20,23,24,29,30,44,48,65,1.2,0.67,0.99,*01
20231028T124303182856,$IIZDA,,,,,,*5F
20231028T124303662018,$IIGLL,3926.9136,N,07602.9879,W,,V,N*55
20231028T124303693252,$IIDPT,2.41,1.09,*63
20231028T124303886637,$GPGSV,5,1,18,05,43,064,45,13,57,060,41,15,79,205,37,18,50,314,47*76
20231028T124303904912,$IIGSA,A,1,05,13,15,18,20,23,24,29,30,44,48,65,1.2,0.67,0.99,*01
20231028T124304197925,$IIZDA,,,,,,*5F
20231028T124304663208,$IIGLL,3926.91379,N,07602.98675,W,,V,N*57
20231028T124304694012,$IIDPT,2.83,1.09,*6D
20231028T124304888709,$GPGSV,5,1,18,05,43,064,45,13,57,060,41,15,79,205,37,18,50,314,47*76
20231028T124304907108,$IIGSA,A,1,05,13,15,18,20,23,24,29,30,44,48,65,1.2,0.67,0.99,*01
20231028T124305199538,$IIZDA,,,,,,*5F
20231028T124305664468,$IIGLL,3926.91398,N,07602.9856,W,,V,N*6F
20231028T124305711501,$IIDPT,2.8,1.09,*5E
20231028T124305889823,$GPGSV,5,2,18,20,15,084,39,23,29,280,39,24,17,161,46,29,41,219,50*78
