20230628T192053090587,$IIGLL,6157.95098,N,04928.67616,W,,V,N*55
20230628T192053106620,$GPGSV,1,1,01,11,90,000,11*41
20230628T192053122627,$IIGSA,M,1,,,,,,,,,,,,,,,,*29
20230628T192053178579,$IIZDA,191958.499,28,06,2023,-01,59*67
20230628T192054171001,$IIGLL,6157.95635,N,04928.55213,W,,V,N*54
20230628T192054266976,$IIZDA,192029.499,28,06,2023,-01,59*6B
20230628T192054756846,$GPGSV,1,1,01,11,90,000,18*48
20230628T192054798359,$IIGSA,M,1,,,,,,,,,,,,,,,,*29
20230628T192055258616,$IIGLL,6157.95674,N,04928.54771,W,,V,N*51
20230628T192055288298,$IIZDA,192030.499,28,06,2023,-01,59*63
20230628T192055788575,$GPGSV,1,1,01,11,90,000,18*48
20230628T192055818376,$IIGSA,M,1,,,,,,,,,,,,,,,,*29
20230628T192056262297,$IIGLL,6157.95712,N,04928.54368,W,,V,N*5C
20230628T192056459387,$IIZDA,,,,,,*5F
20230628T192056788696,$GPGSV,1,1,01,11,90,000,16*46
20230628T192056820693,$IIGSA,M,1,,,,,,,,,,,,,,,,*29
20230628T192057358739,$IIGLL,6157.95712,N,04928.53926,W,,V,N*5B
20230628T192057462844,$IIZDA,,,,,,*5F
20230628T192057794661,$GPGSV,1,1,01,11,90,000,16*46
20230628T192057969987,$IIGSA,A,1,05,07,09,11,13,16,20,29,30,49,69,71,1.02,0.58,0.85,*38
20230628T192058366555,$IIGLL,6157.95712,N,04928.53523,W,,V,N*52
20230628T192058467545,$IIZDA,,,,,,*5F
20230628T192058796171,$GPGSV,1,1,01,11,90,000,16*46
20230628T192059459706,$IIGLL,6157.9575,N,04928.53082,W,,V,N*6A
20230628T192059487926,$IIZDA,,,,,,*5F
20230628T192059798814,$IIGSA,M,1,,,,,,,,,,,,,,,,*29
20230628T192059826145,$GPGSV,5,1,18,05,66,247,39,07,31,080,46,09,18,051,44,11,46,155,49*7F
20230628T192100564251,$IIGLL,6157.9575,N,04928.5264,W,,V,N*53
20230628T192100588245,$IIZDA,,,,,,*5F
20230628T192100820241,$IIGSA,M,1,,,,,,,,,,,,,,,,*29
20230628T192101584051,$IIGLL,6157.95789,N,04928.52179,W,,V,N*5A
20230628T192101789127,$GPGSV,5,1,18,05,66,247,38,07,31,080,43,09,18,051,42,11,46,155,46*72
20230628T192101839698,$IIGSA,M,1,,,,,,,,,,,,,,,,*29
20230628T192102259558,$IIZDA,192037.499,28,06,2023,-01,59*64
20230628T192102664775,$IIGLL,6157.95827,N,04928.51795,W,,V,N*56
20230628T192102793288,$GPGSV,5,1,18,05,66,247,38,07,31,080,43,09,18,051,42,11,46,155,46*72
20230628T192102963530,$IIGSA,A,1,,,,,,,,,,,,,0.97,0.55,0.8,*0D
20230628T192103268661,$IIZDA,192038.499,28,06,2023,-01,59*6B
20230628T192103725364,$IIGLL,6157.95827,N,04928.51373,W,,V,N*5A
20230628T192103802227,$GPGSV,5,1,18,07,31,080,42,09,18,051,41,11,46,155,47,13,25,192,45*70
20230628T192104453271,$IIZDA,,,,,,*5F
20230628T192104748581,$IIGLL,6157.95866,N,04928.5095,W,,V,N*65
20230628T192104809584,$GPGSV,5,1,18,07,31,080,42,09,18,051,41,11,46,155,47,13,25,192,45*70
20230628T192104841617,$IIGSA,M,1,,,,,,,,,,,,,,,,*29
20230628T192105456905,$IIZDA,,,,,,*5F
20230628T192105787350,$IIGLL,6157.95885,N,04928.50534,W,192041.099,A,D*5A
20230628T192105826649,$GPGSV,5,1,18,05,66,247,38,07,31,080,45,09,18,051,44,11,46,155,50*75
20230628T192105858646,$IIGSA,M,1,,,,,,,,,,,,,,,,*29
20230628T192106461936,$IIZDA,,,,,,*5F
20230628T192106846897,$GPGSV,1,1,01,11,90,000,17*47
20230628T192106876869,$IIGSA,M,1,,,,,,,,,,,,,,,,*29
20230628T192106964864,$IIGLL,6157.95904,N,04928.50067,W,,V,N*5D
20230628T192107466186,$IIZDA,,,,,,*5F
20230628T192107857612,$GPGSV,1,1,01,11,90,000,17*47
20230628T192107879187,$IIGSA,M,1,,,,,,,,,,,,,,,,*29
20230628T192108058335,$IIGLL,6157.95942,N,04928.49626,W,,V,N*54
20230628T192108563427,$IIZDA,,,,,,*5F
20230628T192108962158,$IIGSA,A,1,,,,,,,,,,,,,0.97,0.55,0.8,*0D
20230628T192109063162,$IIGLL,6157.95942,N,04928.49242,W,,V,N*52
20230628T192109567347,$IIZDA,,,,,,*5F
20230628T192109799132,$GPGSV,5,1,18,07,31,080,46,09,18,051,44,11,46,155,51,13,25,192,47*74
20230628T192110064674,$IIGLL,6157.95981,N,04928.48838,W,,V,N*5B
20230628T192110659837,$IIZDA,,,,,,*5F
20230628T192110841192,$GPGSV,5,2,18,16,13,003,42,20,77,141,50,29,41,270,46,30,23,113,43*7B
20230628T192110875448,$IIGSA,M,1,,,,,,,,,,,,,,,,*29
20230628T192111067259,$IIGLL,6157.95981,N,04928.48435,W,,V,N*5A
20230628T192111663375,$IIZDA,,,,,,*5F
20230628T192111854217,$GPGSV,1,1,01,11,90,000,14*44
20230628T192111886952,$IIGSA,M,1,,,,,,,,,,,,,,,,*29
20230628T192112067781,$IIGLL,6157.96019,N,04928.48051,W,,V,N*57
20230628T192112664817,$IIZDA,,,,,,*5F
20230628T192112854240,$GPGSV,5,2,18,13,25,192,45,16,13,003,40,20,77,141,47,29,41,270,45*74
20230628T192112955976,$IIGSA,A,1,,,,,,,,,,,,,0.97,0.55,0.8,*0D
20230628T192113069208,$IIGLL,6157.96058,N,04928.47648,W,,V,N*53
20230628T192113865119,$GPGSV,1,1,01,11,90,000,13*43
20230628T192113961141,$IIGSA,A,1,,,,,,,,,,,,,0.97,0.55,0.8,*0D
20230628T192114165646,$IIGLL,6157.96058,N,04928.47226,W,,V,N*5F
20230628T192114267981,$IIZDA,192049.499,28,06,2023,-01,59*6D
20230628T192115252113,$IIGLL,6157.96096,N,04928.46784,W,,V,N*51
20230628T192115287556,$IIZDA,192050.499,28,06,2023,-01,59*65
20230628T192115801611,$GPGSV,5,1,18,05,66,247,40,07,31,080,45,09,18,051,46,11,46,155,50*78
20230628T192115872217,$IIGSA,M,1,,,,,,,,,,,,,,,,*29
20230628T192116255818,$IIGLL,6157.96096,N,04928.464,W,,V,N*5E
20230628T192116553492,$IIZDA,,,,,,*5F
20230628T192116874943,$IIGSA,A,1,05,07,09,11,13,16,20,29,30,49,71,72,0.97,0.55,0.8,*07
20230628T192116912778,$GPGSV,1,1,01,11,90,000,14*44
20230628T192117259458,$IIGLL,6157.96134,N,04928.46016,W,,V,N*54
20230628T192117558903,$IIZDA,,,,,,*5F
20230628T192117921260,$GPGSV,1,1,01,11,90,000,14*44
20230628T192117950895,$IIGSA,M,1,,,,,,,,,,,,,,,,*29
20230628T192118260969,$IIGLL,6157.96173,N,04928.45613,W,,V,N*57
20230628T192118653194,$IIZDA,,,,,,*5F
20230628T192118926966,$GPGSV,1,1,01,11,90,000,13*43
20230628T192118956870,$IIGSA,M,1,,,,,,,,,,,,,,,,*29
20230628T192119264606,$IIGLL,6157.96211,N,04928.4521,W,,V,N*67
20230628T192119667371,$IIZDA,,,,,,*5F
20230628T192120362038,$IIGLL,6157.96211,N,04928.44787,W,,V,N*5D
20230628T192120801306,$GPGSV,5,1,18,05,66,247,37,07,31,080,46,09,18,051,45,11,46,155,49*70
20230628T192120888776,$IIGSA,A,1,05,07,09,11,13,16,20,29,30,49,69,71,0.97,0.55,0.8,*0D
20230628T192121260007,$IIZDA,192056.499,28,06,2023,-01,59*63
20230628T192121369148,$IIGLL,6157.9625,N,04928.44403,W,,V,N*67
20230628T192121835106,$GPGSV,5,2,18,13,25,192,45,16,13,003,45,20,77,141,50,26,10,332,39*70
20230628T192121892182,$IIGSA,A,1,05,07,09,11,13,16,20,26,29,30,49,71,0.97,0.55,0.8,*06
20230628T192122268155,$IIZDA,192057.499,28,06,2023,-01,59*62
20230628T192122462064,$IIGLL,6157.96288,N,04928.43981,W,,V,N*52
20230628T192122949045,$GPGSV,1,1,01,11,90,000,14*44
20230628T192122972769,$IIGSA,M,1,,,,,,,,,,,,,,,,*29
20230628T192123465509,$IIGLL,6157.96288,N,04928.43578,W,,V,N*58
20230628T192123561710,$IIZDA,,,,,,*5F
20230628T192123950896,$GPGSV,1,1,01,11,90,000,14*44
20230628T192123983533,$IIGSA,M,1,,,,,,,,,,,,,,,,*29
20230628T192124560747,$IIGLL,6157.96326,N,04928.43155,W,,V,N*56
20230628T192124584703,$IIZDA,,,,,,*5F
20230628T192125562688,$IIGLL,6157.96326,N,04928.42752,W,,V,N*56
20230628T192125666676,$IIZDA,,,,,,*5F
20230628T192125794666,$GPGSV,5,1,18,05,66,247,41,07,31,080,48,09,18,051,46,11,45,155,52*75
20230628T192125875316,$IIGSA,A,1,05,07,09,11,13,16,18,20,29,30,49,71,0.97,0.55,0.8,*0B
20230628T192126661895,$IIGLL,6157.96403,N,04928.42349,W,,V,N*58
20230628T192126686083,$IIZDA,,,,,,*5F
20230628T192126802533,$GPGSV,5,1,18,05,66,247,41,07,31,080,48,09,18,051,46,11,45,155,52*75
20230628T192126879930,$IIGSA,A,1,05,07,09,11,13,16,18,20,29,30,49,71,0.97,0.55,0.8,*0B
20230628T192127706208,$IIGLL,6157.96403,N,04928.41907,W,,V,N*5B
20230628T192127756891,$IIZDA,,,,,,*5F
20230628T192127859348,$GPGSV,5,2,18,13,25,192,42,16,13,003,39,20,77,141,46,29,41,270,43*7A
20230628T192127963617,$IIGSA,M,1,,,,,,,,,,,,,,,,*29
20230628T192128781373,$IIGLL,6157.96462,N,04928.41504,W,192104.099,A,D*5F
20230628T192128960445,$GPGSV,1,1,01,11,90,000,13*43
20230628T192128984816,$IIGSA,M,1,,,,,,,,,,,,,,,,*29
20230628T192129254493,$IIZDA,192104.499,28,06,2023,-01,59*65
20230628T192129787291,$IIGLL,6157.96462,N,04928.41112,W,192105.099,A,D*5D
20230628T192129961079,$GPGSV,1,1,01,11,90,000,13*43
20230628T192130657794,$IIZDA,,,,,,*5F
20230628T192130795915,$IIGLL,6157.9648,N,04928.40717,W,,V,N*6E
20230628T192130899004,$IIGSA,A,1,05,07,09,11,13,16,18,20,29,30,49,71,0.97,0.55,0.8,*0B
20230628T192130962274,$GPGSV,1,1,01,11,90,000,12*42
20230628T192131658314,$IIZDA,,,,,,*5F
20230628T192131889166,$IIGLL,6157.96518,N,04928.40314,W,,V,N*59
20230628T192131919799,$IIGSA,A,1,05,07,09,11,13,16,20,26,29,30,49,71,0.97,0.55,0.8,*06
20230628T192132661404,$IIZDA,,,,,,*5F
20230628T192132794895,$GPGSV,5,1,18,05,66,247,41,07,31,080,45,09,18,051,46,11,45,155,51*7B
20230628T192132900994,$IIGLL,6157.96557,N,04928.3993,W,,V,N*60
20230628T192132920925,$IIGSA,A,1,05,07,09,11,13,16,20,26,29,30,49,71,0.97,0.55,0.8,*06
20230628T192133763542,$IIZDA,,,,,,*5F
20230628T192133800100,$GPGSV,5,1,18,05,66,247,36,07,31,080,41,09,18,051,43,11,45,155,46*7C
20230628T192133904089,$IIGLL,6157.96557,N,04928.39526,W,,V,N*5B
20230628T192133928913,$IIGSA,A,1,05,07,09,11,13,16,20,29,30,49,71,72,0.97,0.55,0.8,*07
20230628T192134856820,$GPGSV,5,2,18,13,25,192,44,16,13,003,41,20,77,141,47,29,41,270,44*75
20230628T192134906991,$IIGLL,6157.96595,N,04928.39142,W,,V,N*53
20230628T192134939020,$IIGSA,A,1,05,07,09,11,13,16,20,29,30,49,71,72,0.97,0.55,0.8,*07
20230628T192135263611,$IIZDA,192110.499,28,06,2023,-01,59*60
20230628T192135862520,$GPGSV,5,2,18,13,25,192,45,16,13,003,42,20,77,141,49,29,41,270,47*7A
20230628T192135915686,$IIGLL,6157.96634,N,04928.38758,W,,V,N*57
20230628T192135939716,$IIGSA,A,1,05,07,09,11,13,16,20,29,30,49,71,72,0.97,0.55,0.8,*07
20230628T192136653691,$IIZDA,,,,,,*5F
20230628T192136964768,$GPGSV,1,1,01,11,90,000,14*44
20230628T192136984952,$IIGSA,M,1,,,,,,,,,,,,,,,,*29
20230628T192137056943,$IIGLL,6157.96634,N,04928.38336,W,,V,N*5B
20230628T192137654359,$IIZDA,,,,,,*5F
20230628T192138058051,$IIGLL,6157.96672,N,04928.37952,W,,V,N*5E
20230628T192138661015,$IIZDA,,,,,,*5F
20230628T192138791952,$GPGSV,5,1,18,05,66,247,41,07,31,080,44,09,18,051,45,11,45,155,50*78
20230628T192138934068,$IIGSA,A,1,05,07,09,11,13,16,20,29,30,49,71,72,0.97,0.55,0.8,*07
20230628T192139058544,$IIGLL,6157.96672,N,04928.37568,W,,V,N*5B
20230628T192139754184,$IIZDA,,,,,,*5F
20230628T192139808359,$GPGSV,5,1,18,05,66,247,42,07,31,080,43,09,18,051,42,11,45,155,46*7C
20230628T192139941429,$IIGSA,A,1,05,07,09,11,13,16,18,20,29,30,49,71,0.97,0.55,0.8,*0B
20230628T192140063986,$IIGLL,6157.9671,N,04928.37203,W,,V,N*64
20230628T192140863070,$GPGSV,5,2,18,13,25,192,48,16,13,003,39,18,08,307,39,20,76,141,49*7D
20230628T192140948115,$IIGSA,A,1,05,07,09,11,13,16,18,20,29,30,49,71,0.97,0.55,0.8,*0B
20230628T192141159018,$IIGLL,6157.96749,N,04928.36762,W,,V,N*5B
20230628T192141245294,$IIZDA,192116.499,28,06,2023,-01,59*66
20230628T192141952137,$IIGSA,A,1,05,07,09,11,13,16,18,20,29,30,49,71,0.97,0.55,0.8,*0B
20230628T192141984030,$GPGSV,1,1,01,11,90,000,17*47
20230628T192142169443,$IIGLL,6157.96749,N,04928.3632,W,,V,N*69
20230628T192142252534,$IIZDA,192117.499,28,06,2023,-01,59*67
20230628T192142952758,$IIGSA,A,1,05,07,09,11,13,16,18,20,29,30,49,71,0.97,0.55,0.8,*0B
20230628T192142985966,$GPGSV,1,1,01,11,90,000,17*47
20230628T192143254853,$IIGLL,6157.96787,N,04928.35936,W,,V,N*55
20230628T192143276321,$IIZDA,192118.499,28,06,2023,-01,59*68
20230628T192143953211,$IIGSA,A,1,05,07,09,11,13,16,20,29,30,49,71,72,0.97,0.55,0.8,*07
20230628T192144054441,$GPGSV,1,1,01,11,90,000,15*45
20230628T192144257272,$IIGLL,6157.96787,N,04928.35552,W,,V,N*5B
20230628T192144279889,$IIZDA,192119.499,28,06,2023,-01,59*69
20230628T192145062045,$GPGSV,1,1,01,11,90,000,15*45
20230628T192145076897,$IIGSA,M,1,,,,,,,,,,,,,,,,*29
20230628T192145353797,$IIGLL,6157.96787,N,04928.3513,W,,V,N*6B
20230628T192145754290,$IIZDA,,,,,,*5F
20230628T192146357145,$IIGLL,6157.96826,N,04928.34746,W,,V,N*59
20230628T192146761922,$IIZDA,,,,,,*5F
20230628T192146821764,$GPGSV,5,1,18,05,66,247,41,07,31,080,44,09,18,051,43,11,45,155,48*77
20230628T192146954630,$IIGSA,A,1,05,07,09,11,13,16,18,20,29,30,49,71,0.97,0.55,0.8,*0B
20230628T192147463882,$IIGLL,6157.96826,N,04928.34342,W,,V,N*59
20230628T192147791895,$IIZDA,,,,,,*5F
20230628T192147861542,$GPGSV,5,2,18,13,25,192,49,16,13,003,41,18,08,307,41,20,76,140,51*74
20230628T192147965564,$IIGSA,A,1,05,07,09,11,13,16,18,20,29,30,49,71,0.97,0.55,0.8,*0B
20230628T192148557281,$IIGLL,6157.96864,N,04928.33901,W,,V,N*55
20230628T192148796433,$IIZDA,,,,,,*5F
20230628T192148985245,$GPGSV,1,1,01,11,90,000,16*46
20230628T192149015550,$IIGSA,M,1,,,,,,,,,,,,,,,,*29
20230628T192149558842,$IIGLL,6157.96902,N,04928.33536,W,,V,N*5C
20230628T192149859466,$IIZDA,,,,,,*5F
20230628T192149998458,$GPGSV,1,1,01,11,90,000,16*46
20230628T192150020900,$IIGSA,M,1,,,,,,,,,,,,,,,,*29
20230628T192150559239,$IIGLL,6157.96902,N,04928.33152,W,,V,N*5A
20230628T192150999586,$GPGSV,1,1,01,11,90,000,16*46
20230628T192151025925,$IIGSA,M,1,,,,,,,,,,,,,,,,*29
20230628T192151261933,$IIZDA,192126.499,28,06,2023,-01,59*65
20230628T192151652409,$IIGLL,6157.96941,N,04928.3273,W,,V,N*6E
20230628T192152667491,$IIGLL,6157.96941,N,04928.32346,W,,V,N*5B
20230628T192152769326,$IIZDA,,,,,,*5F
20230628T192152802203,$GPGSV,5,1,18,05,66,247,38,07,31,080,43,09,18,051,42,11,45,155,48*7F
20230628T192152954920,$IIGSA,A,1,05,07,09,11,13,16,20,29,30,49,71,72,0.97,0.55,0.81,*36
20230628T192153756683,$IIGLL,6157.96979,N,04928.31923,W,,V,N*5A
20230628T192153785157,$IIZDA,,,,,,*5F
20230628T192153832326,$GPGSV,5,1,18,07,31,080,39,09,18,051,39,11,45,155,44,13,25,192,41*77
20230628T192153967772,$IIGSA,A,1,07,09,11,13,16,20,29,30,49,70,71,72,0.97,0.55,0.81,*34
20230628T192154787395,$IIGLL,6157.97039,N,04928.31505,W,192130.099,A,D*55
20230628T192154862190,$IIZDA,,,,,,*5F
20230628T192155015203,$GPGSV,1,1,01,11,90,000,14*44
20230628T192155051381,$IIGSA,M,1,,,,,,,,,,,,,,,,*29
20230628T192155794196,$IIGLL,6157.97056,N,04928.31136,W,,V,N*53
20230628T192156026104,$GPGSV,1,1,01,11,90,000,14*44
20230628T192156054559,$IIGSA,M,1,,,,,,,,,,,,,,,,*29
20230628T192156253744,$IIZDA,192131.499,28,06,2023,-01,59*63
20230628T192156961292,$IIGLL,6157.97056,N,04928.30714,W,,V,N*54
20230628T192157033435,$GPGSV,1,1,01,11,90,000,14*44
20230628T192157057367,$IIGSA,M,1,,,,,,,,,,,,,,,,*29
20230628T192157261965,$IIZDA,192132.499,28,06,2023,-01,59*60
20230628T192158023251,$IIGLL,6157.97094,N,04928.3031,W,,V,N*6A
20230628T192158049250,$GPGSV,1,1,01,11,90,000,14*44
20230628T192158065285,$IIGSA,M,1,,,,,,,,,,,,,,,,*29
20230628T192158761508,$IIZDA,,,,,,*5F
20230628T192159039276,$IIGLL,6157.97133,N,04928.29926,W,,V,N*51
20230628T192159061340,$GPGSV,1,1,01,11,90,000,14*44
20230628T192159093304,$IIGSA,M,1,,,,,,,,,,,,,,,,*29
20230628T192159769193,$IIZDA,,,,,,*5F
20230628T192200163787,$IIGLL,6157.97133,N,04928.29504,W,,V,N*5D
20230628T192200796798,$GPGSV,5,1,18,05,66,247,37,07,31,080,42,09,18,051,41,11,45,155,48*72
20230628T192200862532,$IIZDA,,,,,,*5F
20230628T192200965227,$IIGSA,A,1,05,07,09,11,13,16,20,26,29,30,49,71,0.97,0.55,0.81,*37
20230628T192201363187,$IIGLL,6157.97171,N,04928.29043,W,,V,N*5D
20230628T192201841127,$GPGSV,5,2,18,16,13,003,38,20,76,140,47,29,41,270,43,30,24,113,41*70
20230628T192201961411,$IIZDA,,,,,,*5F
20230628T192202060043,$IIGSA,M,1,,,,,,,,,,,,,,,,*29
20230628T192202461473,$IIGLL,6157.9721,N,04928.2864,W,,V,N*5D
20230628T192203048830,$GPGSV,1,1,01,11,90,000,13*43
20230628T192203082964,$IIGSA,M,1,,,,,,,,,,,,,,,,*29
20230628T192203260044,$IIZDA,192138.499,28,06,2023,-01,59*6A
20230628T192203551598,$IIGLL,6157.97248,N,04928.28218,W,,V,N*59
20230628T192204055595,$GPGSV,1,1,01,11,90,000,14*44
20230628T192204555335,$IIGLL,6157.97248,N,04928.27853,W,,V,N*53
20230628T192204789432,$IIZDA,,,,,,*5F
20230628T192204960223,$IIGSA,A,1,05,07,09,11,13,16,20,29,30,49,71,72,0.97,0.55,0.81,*36
20230628T192205063146,$GPGSV,1,1,01,11,90,000,14*44
20230628T192205664247,$IIGLL,6157.97286,N,04928.2745,W,,V,N*6E
20230628T192205857631,$IIZDA,,,,,,*5F
20230628T192205962960,$IIGSA,A,1,07,09,11,13,16,20,26,29,30,49,71,72,0.97,0.55,0.81,*37
20230628T192206068062,$GPGSV,1,1,01,11,90,000,17*47
20230628T192206757501,$IIGLL,6157.97286,N,04928.27027,W,,V,N*5A
20230628T192206861508,$IIZDA,,,,,,*5F
20230628T192207091571,$GPGSV,1,1,01,11,90,000,17*47
20230628T192207120589,$IIGSA,M,1,,,,,,,,,,,,,,,,*29
20230628T192207760084,$IIGLL,6157.97325,N,04928.26643,W,,V,N*57
20230628T192207956677,$IIZDA,,,,,,*5F
20230628T192208094281,$GPGSV,1,1,01,11,90,000,17*47
20230628T192208122646,$IIGSA,M,1,,,,,,,,,,,,,,,,*29
20230628T192208775179,$IIGLL,6157.97369,N,04928.26248,W,192144.099,A,D*58
20230628T192209103555,$GPGSV,1,1,01,11,90,000,17*47
20230628T192209128591,$IIGSA,M,1,,,,,,,,,,,,,,,,*29
20230628T192209260164,$IIZDA,192144.499,28,06,2023,-01,59*61
20230628T192209782983,$IIGLL,6157.97369,N,04928.25856,W,192145.099,A,D*5F
20230628T192210113889,$GPGSV,1,1,01,11,90,000,15*45
20230628T192210134637,$IIGSA,M,1,,,,,,,,,,,,,,,,*29
20230628T192210790887,$IIGLL,6157.97402,N,04928.25472,W,,V,N*56
20230628T192210861947,$IIZDA,,,,,,*5F
20230628T192211451957,$IIDPT,549.52,1.09,*6B
20230628T192211795451,$GPGSV,5,1,18,05,67,247,42,07,31,080,42,09,18,051,46,11,45,155,48*76
20230628T192211867963,$IIGLL,6157.97402,N,04928.2505,W,,V,N*62
20230628T192211915956,$IIGSA,A,1,05,07,09,11,13,16,18,20,29,30,49,71,0.97,0.55,0.81,*3A
20230628T192211963929,$IIZDA,,,,,,*5F
20230628T192212455909,$IIDPT,551.1,1.09,*54
20230628T192212826221,$GPGSV,5,2,18,13,25,192,50,16,13,003,41,18,08,307,41,20,76,140,51*7C
20230628T192212921330,$IIGSA,A,1,05,07,09,11,13,16,18,20,29,30,49,71,0.97,0.55,0.81,*3A
20230628T192213058472,$IIGLL,6157.97402,N,04928.24627,W,,V,N*55
20230628T192213230382,$IIZDA,192148.499,28,06,2023,-01,59*6D
20230628T192213461251,$IIDPT,551.62,1.09,*61
20230628T192214060065,$IIGLL,6157.9744,N,04928.24262,W,,V,N*66
20230628T192214135201,$GPGSV,1,1,01,11,90,000,19*49
20230628T192214159194,$IIGSA,M,1,,,,,,,,,,,,,,,,*29
20230628T192214231906,$IIZDA,192149.499,28,06,2023,-01,59*6C
20230628T192215063188,$IIGLL,6157.97478,N,04928.23878,W,,V,N*5B
20230628T192215137835,$GPGSV,1,1,01,11,90,000,19*49
20230628T192215169765,$IIGSA,M,1,,,,,,,,,,,,,,,,*29
20230628T192215241758,$IIZDA,192150.499,28,06,2023,-01,59*64
20230628T192215456174,$IIDPT,550.87,1.09,*6B
20230628T192216121566,$IIGLL,6157.97478,N,04928.23456,W,,V,N*5B
20230628T192216143536,$GPGSV,1,1,01,11,90,000,16*46
20230628T192216256828,$IIZDA,192151.499,28,06,2023,,*45
20230628T192216936848,$IIGSA,A,1,05,07,09,11,13,16,18,20,29,30,49,71,0.97,0.55,0.81,*3A
20230628T192217124310,$IIGLL,6157.97517,N,04928.23072,W,,V,N*51
20230628T192217147167,$GPGSV,1,1,01,11,90,000,16*46
20230628T192217257241,$IIZDA,192152.499,28,06,2023,-01,59*66
20230628T192217451990,$IIDPT,550.29,1.09,*6F
20230628T192217949791,$IIGSA,A,1,07,09,11,13,16,20,26,29,30,49,71,72,0.97,0.55,0.81,*37
20230628T192218151600,$GPGSV,1,1,01,11,90,000,16*46
20230628T192218258578,$IIGLL,6157.97517,N,04928.22669,W,,V,N*5C
20230628T192218273823,$IIZDA,192153.499,28,06,2023,-01,59*67
20230628T192218468241,$IIDPT,550.29,1.09,*6F
20230628T192219151334,$IIGSA,M,1,,,,,,,,,,,,,,,,*29
20230628T192219356289,$IIGLL,6157.97555,N,04928.22246,W,,V,N*53
20230628T192219550905,$IIDPT,549.99,1.09,*6C
20230628T192219798734,$GPGSV,5,1,18,07,31,080,42,09,18,051,40,11,45,155,46,13,25,192,46*70
20230628T192219960974,$IIZDA,,,,,,*5F
20230628T192220463050,$IIGLL,6157.97594,N,04928.21843,W,,V,N*52
20230628T192220564384,$IIDPT,549.42,1.09,*6A
20230628T192220848970,$GPGSV,5,2,18,16,13,003,39,20,76,140,48,29,40,270,45,30,24,113,42*7A
20230628T192220929477,$IIGSA,A,1,07,09,11,13,16,20,29,30,49,70,71,72,0.97,0.55,0.81,*34
20230628T192221054357,$IIZDA,,,,,,*5F
20230628T192221468742,$IIGLL,6157.97594,N,04928.21402,W,,V,N*5B
20230628T192221564999,$IIDPT,548.24,1.09,*6B
20230628T192221849563,$GPGSV,5,2,18,16,13,003,39,20,76,140,48,26,10,332,38,29,40,270,46*75
20230628T192222159072,$IIGSA,M,1,,,,,,,,,,,,,,,,*29
20230628T192222200782,$IIZDA,192157.499,28,06,2023,-01,59*63
20230628T192222485321,$IIGLL,6157.97632,N,04928.21037,W,,V,N*56
20230628T192222854548,$GPGSV,5,2,18,16,13,003,39,20,76,140,48,26,10,332,38,29,40,270,46*75
20230628T192223490544,$IIGLL,6157.97632,N,04928.20653,W,,V,N*53
20230628T192223563036,$IIDPT,546.87,1.09,*6C
20230628T192223951683,$IIGSA,A,1,,,,,,,,,,,,,0.97,0.55,0.81,*3C
20230628T192223980538,$IIZDA,,,,,,*5F
20230628T192224508975,$IIGLL,6157.9767,N,04928.20288,W,,V,N*67
20230628T192225061066,$IIZDA,192200,28,06,2023,,*58
20230628T192225154797,$GPGSV,1,1,01,11,90,000,10*40
20230628T192225178828,$IIGSA,M,1,,,,,,,,,,,,,,,,*29
20230628T192225520885,$IIGLL,6157.97709,N,04928.19885,W,,V,N*55
20230628T192225565238,$IIDPT,547.13,1.09,*60
20230628T192226216560,$IIZDA,192201.499,28,06,2023,-01,59*63
20230628T192226523510,$IIGLL,6157.97709,N,04928.1952,W,,V,N*67
20230628T192226792100,$GPGSV,5,1,18,07,31,080,34,09,17,051,33,11,45,155,39,13,25,192,40*74
20230628T192226950374,$IIGSA,A,1,07,09,11,13,16,20,29,30,49,70,71,72,0.97,0.55,0.81,*34
20230628T192227224196,$IIZDA,192202.499,28,06,2023,-01,59*60
20230628T192227554318,$IIDPT,548.35,1.09,*6B
20230628T192227666052,$IIGLL,6157.97747,N,04928.19117,W,,V,N*5D
20230628T192227847881,$GPGSV,5,2,18,13,25,192,51,18,08,307,42,20,76,139,54,26,10,332,43*76
20230628T192227951947,$IIGSA,A,1,05,07,09,11,13,18,20,26,29,30,49,71,0.97,0.55,0.81,*39
20230628T192228224705,$IIZDA,192203.499,28,06,2023,-01,59*61
20230628T192228554849,$IIDPT,548.35,1.09,*6B
20230628T192228768170,$IIGLL,6157.97747,N,04928.18675,W,,V,N*5F
20230628T192228853567,$GPGSV,5,2,18,13,25,192,51,18,08,307,42,20,76,139,54,26,10,332,43*76
20230628T192228956294,$IIGSA,A,1,05,07,09,11,13,18,20,26,29,30,49,71,0.97,0.55,0.81,*39
20230628T192229787712,$IIGLL,6157.97782,N,04928.1827,W,192205.099,A,D*69
20230628T192229947896,$IIZDA,,,,,,*5F
20230628T192230225887,$GPGSV,1,1,01,11,90,000,14*44
20230628T192230256318,$IIGSA,M,1,,,,,,,,,,,,,,,,*29
20230628T192230554916,$IIDPT,550.57,1.09,*66
20230628T192230871291,$IIGLL,6157.97824,N,04928.1785,W,,V,N*63
20230628T192230956063,$IIZDA,192206,28,06,2023,,*5E
20230628T192231557115,$IIDPT,551.89,1.09,*64
20230628T192231792723,$GPGSV,5,1,18,07,31,080,37,09,17,051,36,11,45,155,42,13,25,192,43*7D
20230628T192231947917,$IIGLL,6157.97824,N,04928.17466,W,,V,N*5A
20230628T192231965660,$IIGSA,A,1,07,09,11,13,20,26,29,30,49,70,71,72,0.97,0.55,0.81,*37
20230628T192231997658,$IIZDA,,,,,,*5F
20230628T192232568558,$IIDPT,552.29,1.09,*6D
20230628T192232854793,$GPGSV,5,2,18,20,76,139,44,26,10,332,35,29,40,270,43,30,24,113,38*7E
20230628T192232958265,$IIGLL,6157.97862,N,04928.17101,W,,V,N*5C
20230628T192232974287,$IIGSA,A,1,07,09,11,13,20,26,29,30,49,70,71,72,0.97,0.55,0.81,*37
20230628T192232998286,$IIZDA,,,,,,*5F
20230628T192233662837,$IIDPT,552.29,1.09,*6D
20230628T192233968741,$IIGLL,6157.97862,N,04928.16698,W,,V,N*5A
20230628T192234056171,$IIZDA,,,,,,*5F
20230628T192234259100,$GPGSV,1,1,01,11,90,000,15*45
20230628T192234281500,$IIGSA,M,1,,,,,,,,,,,,,,,,*29
20230628T192234977833,$IIGLL,6157.97862,N,04928.16294,W,,V,N*52
20230628T192235057634,$IIZDA,,,,,,*5F
20230628T192235649309,$IIDPT,552.7,1.09,*51
20230628T192235796307,$GPGSV,5,1,18,05,67,247,40,07,31,080,42,09,17,051,42,11,45,155,49*7E
20230628T192235951407,$IIGSA,A,1,05,07,09,11,13,16,20,26,29,30,49,71,0.99,0.56,0.82,*39
20230628T192235986832,$IIGLL,6157.97901,N,04928.1593,W,,V,N*60
20230628T192236058852,$IIZDA,,,,,,*5F
20230628T192236649906,$IIDPT,553.1,1.09,*56
20230628T192236858078,$GPGSV,5,2,18,13,25,192,50,16,13,003,40,20,76,139,51,26,10,332,42*72
20230628T192236963406,$IIGSA,A,1,05,07,09,11,13,16,20,26,29,30,49,71,0.99,0.56,0.82,*39
20230628T192236987404,$IIGLL,6157.97939,N,04928.15546,W,,V,N*56
20230628T192237159865,$IIZDA,,,,,,*5F
20230628T192237654506,$IIDPT,553.51,1.09,*63
20230628T192237998870,$IIGLL,6157.97939,N,04928.15181,W,,V,N*59
20230628T192238196082,$IIZDA,192213.499,28,06,2023,-01,59*60
20230628T192238257189,$GPGSV,1,1,01,11,90,000,16*46
20230628T192238273162,$IIGSA,M,1,,,,,,,,,,,,,,,,*29
20230628T192238662305,$IIDPT,553.51,1.09,*63
20230628T192239153935,$IIGLL,6157.97978,N,04928.14739,W,,V,N*58
20230628T192239205657,$IIZDA,192214.499,28,06,2023,-01,59*67
20230628T192239797392,$GPGSV,5,1,18,05,67,247,40,07,31,080,41,09,17,051,41,11,45,155,48*7F
20230628T192239961026,$IIGSA,A,1,05,07,09,11,13,16,20,29,30,49,71,72,0.99,0.56,0.82,*38
20230628T192240157357,$IIGLL,6157.97978,N,04928.14374,W,,V,N*55
20230628T192240213073,$IIZDA,192215.499,28,06,2023,,*46
20230628T192240657226,$IIDPT,553.51,1.09,*63
20230628T192240857125,$GPGSV,5,2,18,13,25,192,50,16,13,003,41,20,76,139,51,29,40,270,50*7D
20230628T192240966805,$IIGSA,A,1,05,07,09,11,13,16,20,29,30,49,71,72,0.99,0.56,0.82,*38
20230628T192241203727,$IIGLL,6157.97978,N,04928.13971,W,,V,N*5D
20230628T192241235159,$IIZDA,192216.499,28,06,2023,-01,59*65
20230628T192241657693,$IIDPT,553.84,1.09,*6B
20230628T192242215703,$IIGLL,6157.98016,N,04928.13568,W,,V,N*57
20230628T192242255510,$GPGSV,1,1,01,11,90,000,14*44
20230628T192242279494,$IIGSA,M,1,,,,,,,,,,,,,,,,*29
20230628T192243056327,$IIZDA,,,,,,*5F
20230628T192243255948,$GPGSV,1,1,01,11,90,000,14*44
20230628T192243280363,$IIGSA,M,1,,,,,,,,,,,,,,,,*29
20230628T192243352320,$IIGLL,6157.98016,N,04928.13165,W,,V,N*5E
20230628T192243664033,$IIDPT,554.17,1.09,*66
20230628T192244058571,$IIZDA,,,,,,*5F
20230628T192244458414,$IIGLL,6157.98054,N,04928.12742,W,,V,N*5A
20230628T192244794657,$GPGSV,5,1,18,05,67,247,40,07,31,080,44,09,17,051,40,11,45,155,47*74
20230628T192244958011,$IIGSA,A,1,05,07,09,11,13,16,20,26,29,30,49,71,0.99,0.56,0.82,*39
20230628T192245154856,$IIZDA,,,,,,*5F
20230628T192245464122,$IIGLL,6157.98093,N,04928.12378,W,,V,N*5C
20230628T192245654634,$IIDPT,554.5,1.09,*55
20230628T192245856898,$GPGSV,5,2,18,16,13,002,37,20,76,139,48,29,40,270,45,30,24,113,42*7B
20230628T192245959511,$IIGSA,A,1,05,07,11,13,16,20,29,30,49,70,71,72,0.99,0.56,0.82,*36
20230628T192246216868,$IIZDA,192221.499,28,06,2023,-01,59*61
20230628T192246545919,$IIGLL,6157.98093,N,04928.11955,W,,V,N*5A
20230628T192246752863,$IIDPT,554.83,1.09,*6B
20230628T192246858150,$GPGSV,5,2,18,16,13,002,37,20,76,139,48,29,40,270,45,30,24,113,42*7B
20230628T192247225672,$IIZDA,192222.499,28,06,2023,-01,59*62
20230628T192247258566,$IIGSA,M,1,,,,,,,,,,,,,,,,*29
20230628T192247546394,$IIGLL,6157.98131,N,04928.1159,W,,V,N*66
20230628T192248236758,$IIZDA,192223.499,28,06,2023,-01,59*63
20230628T192248259584,$GPGSV,1,1,01,11,90,000,11*41
20230628T192248291586,$IIGSA,M,1,,,,,,,,,,,,,,,,*29
20230628T192248552755,$IIGLL,6157.98131,N,04928.11187,W,,V,N*54
20230628T192248753057,$IIDPT,555.5,1.09,*54
20230628T192249656068,$IIGLL,6157.9817,N,04928.10784,W,,V,N*65
20230628T192249757239,$IIDPT,555.5,1.09,*54
20230628T192249798936,$GPGSV,5,1,18,05,67,247,38,07,31,080,42,09,17,051,39,11,45,155,46*72
20230628T192249955609,$IIGSA,A,1,05,07,09,11,13,16,20,26,29,30,49,71,0.99,0.56,0.82,*39
20230628T192250152368,$IIZDA,,,,,,*5F
20230628T192250711617,$IIGLL,6157.98208,N,04928.10381,W,,V,N*58
20230628T192250759045,$IIDPT,555.5,1.09,*54
20230628T192250799066,$GPGSV,5,1,18,05,67,247,38,07,31,080,42,09,17,051,39,11,45,155,46*72
20230628T192251158190,$IIZDA,,,,,,*5F
20230628T192251261377,$IIGSA,M,1,,,,,,,,,,,,,,,,*29
20230628T192251717325,$IIGLL,6157.98208,N,04928.09978,W,,V,N*5C
20230628T192251765361,$IIDPT,555.5,1.09,*54
20230628T192251813355,$GPGSV,5,1,18,05,67,247,41,07,31,080,45,11,45,155,48,13,26,192,45*79
20230628T192252220220,$IIZDA,192227.499,28,06,2023,-01,59*67
20230628T192252730391,$IIGLL,6157.98246,N,04928.09613,W,,V,N*54
20230628T192252855722,$GPGSV,5,2,18,16,13,002,44,18,08,307,39,20,76,139,51,26,10,332,40*70
20230628T192252961082,$IIGSA,A,1,05,07,11,13,16,18,20,26,29,30,49,71,0.99,0.56,0.82,*39
20230628T192253228987,$IIZDA,192228.499,28,06,2023,-01,59*68
20230628T192253730957,$IIGLL,6157.98285,N,04928.09229,W,,V,N*56
20230628T192253758672,$IIDPT,558.47,1.09,*6F
20230628T192254231690,$IIZDA,192229.499,28,06,2023,-01,59*69
20230628T192254355457,$GPGSV,1,1,01,11,90,000,10*40
20230628T192254380202,$IIGSA,M,1,,,,,,,,,,,,,,,,*29
20230628T192254738732,$IIGLL,6157.98323,N,04928.08864,W,,V,N*59
20230628T192254771804,$IIDPT,559.96,1.09,*62
20230628T192255236901,$IIZDA,192230.499,28,06,2023,-01,59*61
20230628T192255357194,$GPGSV,1,1,01,11,90,000,10*40
20230628T192255752811,$IIGLL,6157.98323,N,04928.0848,W,,V,N*6F
20230628T192255780508,$IIDPT,561.44,1.09,*66
20230628T192255950540,$IIGSA,A,1,07,09,11,13,16,18,20,26,29,30,49,71,0.99,0.56,0.82,*35
20230628T192256249658,$IIZDA,192231.499,28,06,2023,,*40
20230628T192256358980,$GPGSV,1,1,01,11,90,000,10*40
20230628T192256767836,$IIGLL,6157.98359,N,04928.08065,W,192232.099,A,D*57
20230628T192256807954,$IIDPT,563.65,1.09,*67
20230628T192256959496,$IIGSA,A,1,07,09,11,13,16,18,20,26,29,30,49,71,0.99,0.56,0.82,*35
20230628T192257259712,$IIZDA,192232.499,28,06,2023,,*43
20230628T192257776984,$IIGLL,6157.984,N,04928.07673,W,192233.099,A,D*53
20230628T192257816294,$GPGSV,5,1,18,05,67,247,38,07,31,079,42,09,17,051,42,11,45,155,46*78
20230628T192257856257,$IIDPT,563.65,1.09,*67
20230628T192257960280,$IIGSA,A,1,05,07,09,11,13,16,20,26,29,30,49,71,0.99,0.56,0.82,*39
20230628T192258351522,$IIZDA,,,,,,*5F
20230628T192258782706,$IIGLL,6157.984,N,04928.07323,W,192234.099,A,D*54
20230628T192258816465,$GPGSV,5,1,18,05,67,247,38,07,31,079,42,09,17,051,42,11,45,155,46*78
20230628T192258856427,$IIDPT,565.86,1.09,*6C
20230628T192258960452,$IIGSA,A,1,05,07,09,11,13,16,20,26,29,30,49,71,0.99,0.56,0.82,*39
20230628T192259353111,$IIZDA,,,,,,*5F
20230628T192259786547,$IIGLL,6157.98441,N,04928.06931,W,192235.099,A,D*58
20230628T192259816822,$GPGSV,5,1,18,05,67,247,38,07,31,079,42,11,45,155,45,13,26,192,45*7B
20230628T192259856786,$IIDPT,565.86,1.09,*6C
20230628T192259960810,$IIGSA,A,1,05,07,11,13,16,18,20,26,29,30,49,71,0.99,0.56,0.82,*39
20230628T192300787884,$IIGLL,6157.98441,N,04928.0656,W,192236.099,A,D*63
20230628T192300825137,$GPGSV,5,2,18,16,13,002,43,18,08,307,37,20,76,139,50,26,10,332,39*76
20230628T192300857138,$IIDPT,566.58,1.09,*6C
20230628T192301233358,$IIZDA,192236.499,28,06,2023,-01,59*67
20230628T192301789530,$IIGLL,6157.98477,N,04928.06176,W,,V,N*5B
20230628T192301827441,$GPGSV,5,2,18,16,13,002,44,18,08,307,40,20,76,139,51,26,10,332,40*7E
20230628T192301867471,$IIDPT,567.3,1.09,*53
20230628T192301963460,$IIGSA,A,1,05,07,11,13,16,18,20,26,29,30,49,71,0.99,0.56,0.82,*39
20230628T192302256784,$IIZDA,192237.499,28,06,2023,-01,59*66
20230628T192302836972,$GPGSV,5,2,18,16,13,002,44,18,08,307,40,20,76,139,51,26,10,332,40*7E
20230628T192302951253,$IIGLL,6157.98515,N,04928.05773,W,,V,N*5E
20230628T192302976006,$IIGSA,A,1,05,07,11,13,16,18,20,26,29,30,49,71,0.99,0.56,0.82,*39
20230628T192303358734,$IIZDA,,,,,,*5F
20230628T192303860100,$IIDPT,568.75,1.09,*6D
20230628T192303954078,$IIGLL,6157.98515,N,04928.05389,W,,V,N*5F
20230628T192303978107,$IIGSA,A,1,05,07,11,13,16,20,26,29,30,49,71,72,0.99,0.56,0.82,*35
20230628T192304789194,$GPGSV,5,1,18,05,67,247,39,07,31,079,42,11,45,155,45,13,26,192,46*79
20230628T192305057542,$IIGLL,6157.98554,N,04928.04966,W,,V,N*50
20230628T192305244818,$IIZDA,192240.499,28,06,2023,-01,59*66
20230628T192305797102,$GPGSV,5,1,18,05,67,247,38,07,31,079,42,09,17,051,38,11,45,155,47*74
20230628T192305873925,$IIGSA,A,1,05,07,09,11,13,16,20,26,29,30,49,71,0.99,0.56,0.82,*39
20230628T192305954539,$IIDPT,568.75,1.09,*6D
20230628T192306058529,$IIGLL,6157.98592,N,04928.04602,W,,V,N*57
20230628T192306259859,$IIZDA,192241.499,28,06,2023,-01,59*67
20230628T192306850513,$GPGSV,5,2,18,13,26,192,49,16,13,002,39,20,76,139,50,26,09,332,40*7D
20230628T192306892263,$IIGSA,A,1,05,07,09,11,13,16,20,26,29,30,49,71,0.99,0.56,0.82,*39
20230628T192306957549,$IIDPT,568.75,1.09,*6D
20230628T192307150303,$IIGLL,6157.98592,N,04928.04198,W,,V,N*53
20230628T192307263241,$IIZDA,192242.499,28,06,2023,,*44
20230628T192307851035,$GPGSV,5,2,18,16,13,002,35,20,76,139,46,26,09,332,38,29,40,269,43*7D
20230628T192307908770,$IIGSA,A,1,05,07,11,13,16,20,26,29,30,49,71,72,1,0.56,0.83,*1B
20230628T192308255781,$IIGLL,6157.9863,N,04928.03757,W,,V,N*6A
20230628T192308279565,$IIZDA,192243.499,28,06,2023,-01,59*65
20230628T192308913055,$IIGSA,A,1,05,07,11,13,16,20,26,29,30,49,71,72,1,0.56,0.83,*1B
20230628T192308958144,$IIDPT,570.84,1.09,*6A
20230628T192309346039,$IIGLL,6157.98669,N,04928.03354,W,,V,N*51
20230628T192309380348,$IIZDA,,,,,,*5F
20230628T192309788004,$GPGSV,5,1,18,05,67,247,42,07,31,079,42,11,45,155,48,13,26,192,47*79
20230628T192309914311,$IIGSA,A,1,05,07,11,13,16,20,26,29,30,49,71,72,1,0.56,0.83,*1B
20230628T192310453886,$IIGLL,6157.98669,N,04928.02931,W,,V,N*59
20230628T192310480283,$IIZDA,,,,,,*5F
20230628T192310848420,$GPGSV,5,2,18,16,13,002,39,20,76,139,50,26,09,332,40,29,40,269,48*72
20230628T192310932619,$IIGSA,A,1,05,07,11,13,16,20,26,29,30,49,71,72,1.02,0.58,0.85,*3F
20230628T192310956622,$IIDPT,575.02,1.09,*61
20230628T192311561261,$IIGLL,6157.98707,N,04928.02528,W,,V,N*54
20230628T192311851030,$GPGSV,5,2,18,16,13,002,37,20,76,139,46,26,09,332,36,29,40,269,44*76
20230628T192311961435,$IIDPT,577.11,1.09,*61
20230628T192312251828,$IIZDA,192247.499,28,06,2023,-01,59*61
20230628T192312630137,$IIGLL,6157.98707,N,04928.02106,W,,V,N*5C
20230628T192312855648,$GPGSV,5,2,18,16,13,002,37,20,76,139,46,26,09,332,36,29,40,269,44*76
20230628T192312943529,$IIGSA,A,1,05,07,11,13,16,20,26,29,30,49,71,72,1,0.56,0.83,*1B
20230628T192312967528,$IIDPT,580.27,1.09,*6C
20230628T192313360686,$IIZDA,,,,,,*5F
20230628T192313634613,$IIGLL,6157.98746,N,04928.01741,W,,V,N*5F
20230628T192314448925,$IIZDA,,,,,,*5F
20230628T192314640168,$IIGLL,6157.98784,N,04928.01376,W,,V,N*51
20230628T192314793328,$GPGSV,5,1,18,07,31,079,42,11,45,155,47,13,26,192,47,16,13,002,43*75
20230628T192314942412,$IIGSA,A,1,07,11,13,16,18,20,26,29,30,49,71,72,1,0.56,0.83,*17
20230628T192314980795,$IIDPT,583.42,1.09,*6C
20230628T192315454873,$IIZDA,,,,,,*5F
20230628T192315656468,$IIGLL,6157.98784,N,04928.00992,W,,V,N*50
20230628T192315793502,$GPGSV,5,1,18,05,67,247,41,07,31,079,40,11,45,155,48,13,26,192,48*77
20230628T192315958227,$IIGSA,A,1,05,07,11,13,16,20,26,29,30,49,71,72,1,0.56,0.83,*1B
20230628T192315980949,$IIDPT,584.48,1.09,*61
20230628T192316563268,$IIZDA,,,,,,*5F
20230628T192316658491,$IIGLL,6157.98822,N,04928.00627,W,,V,N*52
20230628T192316855609,$GPGSV,5,2,18,16,13,002,39,20,76,139,51,26,09,331,39,29,40,269,49*7F
20230628T192316960741,$IIGSA,A,1,05,07,11,13,16,20,26,29,30,49,71,72,1,0.56,0.83,*1B
20230628T192317057639,$IIDPT,585.54,1.09,*6D
20230628T192317661739,$IIGLL,6157.98822,N,04928.00262,W,,V,N*57
20230628T192318058182,$IIDPT,587.11,1.09,*6E
20230628T192318160181,$IIZDA,192253.499,28,06,2023,-01,59*64
20230628T192318668468,$IIGLL,6157.98861,N,04927.9984,W,,V,N*65
20230628T192318792161,$GPGSV,5,1,18,05,67,247,44,07,31,079,40,09,17,051,41,11,45,155,47*73
20230628T192318955710,$IIGSA,A,1,05,07,09,11,13,16,20,29,30,49,71,72,1,0.56,0.83,*16
20230628T192319059581,$IIDPT,588.67,1.09,*60
20230628T192319176347,$IIZDA,192254.499,28,06,2023,-01,59*63
20230628T192319683613,$IIGLL,6157.98861,N,04927.99456,W,,V,N*5E
20230628T192319795241,$GPGSV,5,2,18,16,13,002,38,20,76,139,47,26,09,331,36,29,40,269,43*7C
20230628T192319956256,$IIGSA,A,1,05,07,11,13,16,20,26,29,30,49,71,72,1,0.56,0.83,*1B
20230628T192320247821,$IIZDA,192255.499,28,06,2023,,*42
20230628T192320688286,$IIGLL,6157.98899,N,04927.99091,W,,V,N*56
20230628T192320800750,$GPGSV,5,2,18,16,13,002,38,20,76,139,47,26,09,331,36,29,40,269,43*7C
20230628T192320956797,$IIGSA,A,1,05,07,11,13,16,20,26,29,30,49,71,72,1,0.56,0.83,*1B
20230628T192321054990,$IIDPT,589.18,1.09,*69
20230628T192321253609,$IIZDA,192256.499,28,06,2023,,*41
20230628T192321781510,$IIGLL,6157.98895,N,04927.98685,W,192257.099,A,D*51
20230628T192321814001,$GPGSV,5,1,18,05,67,247,37,07,31,079,37,11,45,155,46,13,26,192,41*71
20230628T192322455279,$IIZDA,,,,,,*5F
20230628T192322949763,$IIGLL,6157.98938,N,04927.98246,W,,V,N*55
20230628T192322979053,$IIGSA,A,1,05,07,11,13,16,20,26,29,30,49,71,72,1,0.56,0.83,*1B
20230628T192323059036,$IIDPT,589.08,1.09,*68
20230628T192323554681,$IIZDA,,,,,,*5F
20230628T192323783542,$GPGSV,5,1,18,05,67,247,37,07,31,079,36,09,17,051,36,11,45,155,43*72
20230628T192324006491,$IIGLL,6157.98938,N,04927.97824,W,,V,N*54
20230628T192324064453,$IIDPT,588.47,1.09,*62
20230628T192324784285,$GPGSV,5,1,18,05,67,247,37,07,31,079,36,09,17,051,36,11,45,155,43*72
20230628T192324953827,$IIGSA,A,1,05,07,09,11,13,16,20,29,30,49,71,72,1,0.56,0.83,*16
20230628T192325012747,$IIGLL,6157.98938,N,04927.97459,W,,V,N*52
20230628T192325201462,$IIZDA,192300.499,28,06,2023,-01,59*63
20230628T192325811919,$GPGSV,5,2,18,13,26,192,43,16,13,002,39,20,76,138,48,29,40,269,45*77
20230628T192325962557,$IIGSA,A,1,05,07,09,11,13,16,20,29,30,49,71,72,1,0.56,0.83,*16
20230628T192326014700,$IIGLL,6157.98976,N,04927.97094,W,,V,N*5D
20230628T192326062662,$IIDPT,587.37,1.09,*6A
20230628T192326204218,$IIZDA,192301.499,28,06,2023,-01,59*62
20230628T192327024883,$IIGLL,6157.99014,N,04927.9671,W,,V,N*6B
20230628T192327063860,$IIDPT,582.7,1.09,*5C
20230628T192327207749,$IIZDA,192302.499,28,06,2023,-01,59*61
20230628T192327791059,$GPGSV,5,1,18,05,67,247,40,07,31,079,39,09,17,051,38,11,44,155,47*76
20230628T192327952316,$IIGSA,A,1,05,07,09,11,13,20,26,29,30,49,71,72,1,0.56,0.83,*15
20230628T192328027913,$IIGLL,6157.99014,N,04927.96346,W,,V,N*5C
20230628T192328247955,$IIZDA,192303.499,28,06,2023,,*40
20230628T192328793675,$GPGSV,5,1,18,05,67,247,40,07,31,079,39,09,17,051,38,11,44,155,47*76
20230628T192329029866,$IIGLL,6157.99053,N,04927.95981,W,,V,N*5D
20230628T192329064909,$IIDPT,573.37,1.09,*61
20230628T192329249610,$IIZDA,192304.499,28,06,2023,,*47
20230628T192329824507,$GPGSV,5,2,18,16,13,002,38,20,76,138,49,26,09,331,37,29,40,269,48*79
20230628T192329953396,$IIGSA,A,1,05,07,11,13,16,20,26,29,30,49,71,72,1,0.56,0.83,*1B
20230628T192330038392,$IIGLL,6157.99053,N,04927.95578,W,,V,N*57
20230628T192330252803,$IIZDA,192305.499,28,06,2023,,*46
20230628T192330839565,$GPGSV,5,2,18,16,13,002,38,20,76,138,49,26,09,331,37,29,40,269,48*79
20230628T192330953899,$IIGSA,A,1,05,07,11,13,16,20,26,29,30,49,71,72,1,0.56,0.83,*1B
20230628T192331042701,$IIGLL,6157.99091,N,04927.95213,W,,V,N*53
20230628T192331058676,$IIDPT,569.81,1.09,*67
20230628T192331254592,$IIZDA,192306.499,28,06,2023,,*45
20230628T192332151616,$IIGLL,6157.9913,N,04927.9481,W,,V,N*51
20230628T192332254727,$IIZDA,192307.499,28,06,2023,,*44
20230628T192332791693,$GPGSV,5,1,18,05,67,247,42,07,31,079,36,11,44,155,41,13,26,192,43*76
20230628T192332955619,$IIGSA,A,1,05,07,11,13,16,20,26,29,30,49,71,72,1,0.56,0.83,*1B
20230628T192333152215,$IIDPT,562.7,1.09,*52
20230628T192333229454,$IIGLL,6157.9913,N,04927.94387,W,,V,N*64
20230628T192333545183,$IIZDA,,,,,,*5F
20230628T192333847242,$GPGSV,5,2,18,16,13,002,41,20,76,138,48,26,09,331,35,29,40,269,47*7B
20230628T192334156562,$IIDPT,562.7,1.09,*52
20230628T192334347181,$IIGLL,6157.9913,N,04927.93984,W,,V,N*6A
20230628T192334546925,$IIZDA,,,,,,*5F
20230628T192334940522,$IIGSA,A,1,05,07,11,13,16,20,26,29,30,49,71,72,1,0.56,0.83,*1B
20230628T192335348918,$IIGLL,6157.99168,N,04927.93619,W,,V,N*5C
20230628T192335555270,$IIZDA,,,,,,*5F
20230628T192335793171,$GPGSV,5,1,18,05,67,246,39,07,31,079,36,09,17,051,34,11,44,155,43*7E
20230628T192335948184,$IIGSA,A,1,05,07,09,11,13,16,20,29,30,49,71,72,1,0.56,0.83,*16
20230628T192336146190,$IIDPT,562.7,1.09,*52
20230628T192336354469,$IIGLL,6157.99168,N,04927.93235,W,,V,N*56
20230628T192336555520,$IIZDA,,,,,,*5F
20230628T192336839622,$GPGSV,5,2,18,13,26,192,43,16,13,002,39,20,76,138,46,29,40,269,44*78
20230628T192336954626,$IIGSA,A,1,05,07,09,11,13,16,20,29,30,49,71,72,1,0.56,0.83,*16
20230628T192337458121,$IIGLL,6157.99206,N,04927.92832,W,,V,N*51
20230628T192337647814,$IIZDA,,,,,,*5F
20230628T192337954627,$IIGSA,A,1,05,07,11,13,16,18,20,26,29,30,49,71,1,0.56,0.83,*17
20230628T192338151872,$IIDPT,560.94,1.09,*6A
20230628T192338549243,$IIGLL,6157.99206,N,04927.92429,W,,V,N*57
20230628T192338657286,$IIZDA,,,,,,*5F
20230628T192338782257,$GPGSV,5,1,18,05,67,246,46,07,31,079,42,11,44,155,48,13,26,192,44*7E
20230628T192339156894,$IIDPT,562.16,1.09,*62
20230628T192339549693,$IIGLL,6157.99206,N,04927.92045,W,,V,N*59
20230628T192339657335,$IIZDA,,,,,,*5F
20230628T192339953735,$IIGSA,A,1,05,07,11,13,16,18,20,26,29,30,49,71,1,0.56,0.83,*17
20230628T192340159785,$IIDPT,563.38,1.09,*6F
20230628T192340549710,$IIGLL,6157.99245,N,04927.9168,W,,V,N*62
20230628T192340790747,$GPGSV,5,1,18,05,67,246,43,07,31,079,43,11,44,155,48,13,26,192,47*79
20230628T192341259352,$IIZDA,192316.499,28,06,2023,-01,59*64
20230628T192341609080,$IIGLL,6157.99283,N,04927.91258,W,,V,N*59
20230628T192341810110,$GPGSV,5,2,18,16,13,002,41,20,76,138,47,26,09,331,35,29,40,269,46*75
20230628T192341948642,$IIGSA,A,1,05,07,11,13,16,20,26,29,30,49,71,72,1,0.56,0.83,*1B
20230628T192342151621,$IIDPT,565.83,1.09,*69
20230628T192342259604,$IIZDA,192317.499,28,06,2023,-01,59*65
20230628T192342653812,$IIGLL,6157.99283,N,04927.90893,W,,V,N*55
20230628T192342812880,$GPGSV,5,2,18,16,13,002,41,20,76,138,47,26,09,331,35,29,40,269,46*75
20230628T192343555533,$IIZDA,,,,,,*5F
20230628T192343761086,$IIGLL,6157.99283,N,04927.9049,W,,V,N*6A
20230628T192343815211,$GPGSV,5,2,18,16,13,002,40,18,09,307,39,20,76,138,50,26,09,331,39*70
20230628T192343946462,$IIGSA,A,1,05,07,11,13,16,18,20,26,29,30,49,71,1,0.56,0.83,*17
20230628T192344151757,$IIDPT,568.55,1.09,*6F
20230628T192344645277,$IIZDA,,,,,,*5F
20230628T192344779737,$IIGLL,6157.99307,N,04927.90088,W,192320.099,A,D*52
20230628T192344821270,$GPGSV,5,2,18,16,13,002,40,18,09,307,39,20,76,138,50,26,09,331,39*70
20230628T192345649084,$IIZDA,,,,,,*5F
20230628T192345782954,$IIGLL,6157.99307,N,04927.89696,W,192321.099,A,D*52
20230628T192345829107,$GPGSV,5,2,18,16,13,002,39,18,09,307,39,20,76,138,47,26,09,331,37*76
20230628T192345946537,$IIGSA,A,1,05,07,11,13,16,18,20,26,29,30,49,71,1,0.56,0.83,*17
20230628T192346157822,$IIDPT,574.51,1.09,*66
20230628T192346653389,$IIZDA,,,,,,*5F
20230628T192346934558,$IIGLL,6157.99322,N,04927.89261,W,,V,N*50
20230628T192346959317,$IIGSA,A,1,05,07,11,13,16,18,20,26,29,30,49,71,1,0.56,0.83,*17
20230628T192347790598,$GPGSV,5,1,18,05,67,246,44,07,31,079,48,11,44,155,50,13,26,192,51*7B
20230628T192347942478,$IIGLL,6157.9936,N,04927.88896,W,,V,N*65
20230628T192348154759,$IIDPT,577.49,1.09,*6C
20230628T192348251778,$IIZDA,192323.499,28,06,2023,-01,59*62
20230628T192348831818,$GPGSV,5,2,18,16,13,002,45,18,09,307,40,20,76,138,50,26,09,331,40*75
20230628T192348944958,$IIGLL,6157.9936,N,04927.88512,W,,V,N*64
20230628T192348969743,$IIGSA,A,1,05,07,11,13,16,18,20,26,29,30,49,71,1,0.56,0.83,*17
20230628T192349156326,$IIDPT,578.99,1.09,*6E
20230628T192349542711,$IIZDA,,,,,,*5F
20230628T192349848912,$GPGSV,5,2,18,16,13,002,45,18,09,307,45,20,76,138,52,26,09,331,43*71
20230628T192349950457,$IIGLL,6157.99398,N,04927.88147,W,,V,N*57
20230628T192350545326,$IIZDA,,,,,,*5F
20230628T192350957499,$IIGSA,A,1,05,07,11,13,16,18,20,26,29,30,49,71,1,0.56,0.83,*17
20230628T192351052317,$IIGLL,6157.99398,N,04927.87744,W,,V,N*5D
20230628T192351255418,$IIDPT,578.99,1.09,*6E
20230628T192351657164,$IIZDA,,,,,,*5F
20230628T192351791527,$GPGSV,5,1,18,05,67,246,46,07,31,079,46,11,44,155,50,13,26,192,51*77
20230628T192352151596,$IIGLL,6157.99398,N,04927.87322,W,,V,N*59
20230628T192352745403,$IIZDA,,,,,,*5F
20230628T192352795778,$GPGSV,5,1,18,05,67,246,46,07,31,079,46,11,44,155,50,13,26,192,51*77
20230628T192352875805,$IIGSA,A,1,05,07,11,13,16,18,20,26,29,30,49,71,1,0.56,0.83,*17
20230628T192353164836,$IIGLL,6157.99398,N,04927.86918,W,,V,N*5B
20230628T192353259621,$IIDPT,578.99,1.09,*6E
20230628T192353751208,$IIZDA,,,,,,*5F
20230628T192353847169,$GPGSV,5,2,18,16,13,002,44,18,09,307,40,20,76,138,52,26,09,331,42*74
20230628T192353887165,$IIGSA,A,1,05,07,11,13,16,18,20,26,29,30,49,71,1,0.56,0.83,*17
20230628T192354171812,$IIGLL,6157.99437,N,04927.86515,W,,V,N*58
20230628T192354760105,$IIZDA,,,,,,*5F
20230628T192354853154,$GPGSV,5,2,18,16,13,002,44,18,09,307,40,20,76,138,52,26,09,331,42*74
20230628T192355247373,$IIDPT,578.99,1.09,*6E
20230628T192355351579,$IIGLL,6157.99437,N,04927.86112,W,,V,N*5B
20230628T192355881306,$IIGSA,A,1,05,07,11,13,16,18,20,26,29,30,49,71,1,0.56,0.83,*17
20230628T192356180011,$IIZDA,192331.499,28,06,2023,-01,59*61
20230628T192356252782,$IIDPT,578.99,1.09,*6E
20230628T192356452736,$IIGLL,6157.99437,N,04927.8569,W,,V,N*65
20230628T192356777715,$GPGSV,5,1,18,05,67,246,44,07,31,079,45,11,44,155,47,13,26,192,49*79
20230628T192356890959,$IIGSA,A,1,05,07,11,13,16,18,20,26,29,30,49,71,1,0.56,0.83,*17
20230628T192357195113,$IIZDA,192332.499,28,06,2023,-01,59*62
20230628T192357258528,$IIDPT,578.99,1.09,*6E
20230628T192357545999,$IIGLL,6157.99437,N,04927.85286,W,,V,N*56
20230628T192357783330,$GPGSV,5,1,18,05,67,246,44,07,31,079,45,11,44,155,49,13,26,192,50*7F
20230628T192357895886,$IIGSA,A,1,05,07,11,13,16,20,26,29,30,49,71,72,1,0.56,0.83,*1B
20230628T192358195677,$IIZDA,192333.499,28,06,2023,-01,59*63
20230628T192358557989,$IIGLL,6157.99475,N,04927.84922,W,,V,N*54
20230628T192358845358,$GPGSV,5,2,18,16,13,002,42,20,76,138,49,26,09,331,41,29,40,269,46*7B
20230628T192358906328,$IIGSA,A,1,05,07,11,13,16,20,26,29,30,49,71,72,1,0.56,0.83,*1B
20230628T192359210912,$IIZDA,192334.499,28,06,2023,,*44
20230628T192359255485,$IIDPT,578.99,1.09,*6E
20230628T192359654333,$IIGLL,6157.99475,N,04927.84499,W,,V,N*59
20230628T192359849992,$GPGSV,5,2,18,16,13,002,43,18,09,307,38,20,76,138,50,26,09,331,42*7E
20230628T192359906335,$IIGSA,A,1,05,07,11,13,16,18,20,26,29,30,49,71,1,0.56,0.83,*17
20230628T192400257175,$IIDPT,578.99,1.09,*6E
20230628T192400653973,$IIZDA,,,,,,*5F
20230628T192400748973,$IIGLL,6157.99514,N,04927.84096,W,,V,N*54
20230628T192400852540,$GPGSV,5,2,18,16,13,002,43,18,09,307,38,20,76,138,50,26,09,331,42*7E
20230628T192400908345,$IIGSA,A,1,05,07,11,13,16,18,20,26,29,30,49,71,1,0.56,0.83,*17
20230628T192401257664,$IIDPT,578.99,1.09,*6E
20230628T192401747121,$IIZDA,,,,,,*5F
20230628T192401781109,$IIGLL,6157.99513,N,04927.83697,W,192337.099,A,D*5D
20230628T192401853133,$GPGSV,5,2,18,16,13,002,42,20,76,138,49,26,09,331,40,29,40,269,45*79
20230628T192401917099,$IIGSA,A,1,05,07,11,13,16,20,26,29,30,49,71,72,1,0.56,0.83,*1B
20230628T192402258186,$IIDPT,578.99,1.09,*6E
20230628T192402918481,$IIGLL,6157.99514,N,04927.8327,W,,V,N*69
20230628T192402945548,$IIGSA,A,1,05,07,11,13,16,20,26,29,30,49,71,72,1,0.56,0.83,*1B
20230628T192403214483,$IIZDA,192338.499,28,06,2023,-01,59*68
20230628T192403264430,$IIDPT,578.99,1.09,*6E
20230628T192403778386,$GPGSV,5,1,18,05,67,246,50,07,31,079,47,09,17,051,38,11,44,155,48*70
20230628T192403919836,$IIGLL,6157.99514,N,04927.82886,W,,V,N*5B
20230628T192403949120,$IIGSA,A,1,05,07,09,11,13,16,18,20,26,29,30,49,1,0.56,0.83,*18
20230628T192404233420,$IIZDA,192339.499,28,06,2023,-01,59*69
20230628T192404790388,$GPGSV,5,1,18,05,67,246,50,07,31,079,47,09,17,051,38,11,44,155,48*70
20230628T192404934943,$IIGLL,6157.99514,N,04927.82522,W,,V,N*58
20230628T192404957050,$IIGSA,A,1,05,07,09,11,13,16,18,20,26,29,30,49,1,0.56,0.83,*18
20230628T192405242424,$IIZDA,192340.499,28,06,2023,-01,59*67
20230628T192405270631,$IIDPT,578.99,1.09,*6E
20230628T192405791951,$GPGSV,5,2,18,13,26,192,51,16,13,002,39,18,09,307,40,20,76,138,49*76
20230628T192405943009,$IIGLL,6157.99514,N,04927.82118,W,,V,N*55
20230628T192405962921,$IIGSA,A,1,05,07,09,11,13,16,18,20,26,29,30,49,1,0.56,0.83,*18
20230628T192406647867,$IIZDA,,,,,,*5F
20230628T192406800519,$GPGSV,5,3,18,26,09,331,44,29,40,269,46,30,24,112,50,49,07,122,39*79
20230628T192407044384,$IIGLL,6157.99514,N,04927.81715,W,,V,N*5D
20230628T192407262978,$IIDPT,578.99,1.09,*6E
20230628T192407657209,$IIZDA,,,,,,*5F
20230628T192407846975,$GPGSV,5,2,18,16,13,002,39,18,09,307,38,20,76,137,47,26,09,331,42*7A
20230628T192407952087,$IIGSA,A,1,05,07,11,13,16,18,20,26,29,30,49,71,1,0.56,0.83,*17
20230628T192408056959,$IIGLL,6157.99514,N,04927.81331,W,,V,N*5F
20230628T192408356182,$IIDPT,578.99,1.09,*6E
20230628T192408749856,$IIZDA,,,,,,*5F
20230628T192409150902,$IIGLL,6157.99552,N,04927.8089,W,,V,N*6C
20230628T192409752501,$IIZDA,,,,,,*5F
20230628T192409804860,$GPGSV,5,1,18,05,67,246,51,07,31,079,45,09,17,051,41,11,44,155,50*74
20230628T192409956708,$IIGSA,A,1,05,07,09,11,13,16,20,26,29,30,49,71,1,0.56,0.83,*17
20230628T192410154995,$IIGLL,6157.99552,N,04927.80506,W,,V,N*5E
20230628T192410345833,$IIDPT,570.64,1.09,*64
20230628T192410780006,$IIZDA,,,,,,*5F
20230628T192410805330,$GPGSV,5,1,18,05,67,246,51,07,31,079,45,09,17,051,41,11,44,155,50*74
20230628T192411245572,$IIGLL,6157.99552,N,04927.80083,W,,V,N*56
20230628T192411354473,$IIDPT,570.64,1.09,*64
20230628T192411842104,$IIZDA,,,,,,*5F
20230628T192411956610,$IIGSA,A,1,05,07,11,13,16,20,26,29,30,49,71,72,1,0.56,0.83,*1B
20230628T192412254241,$IIGLL,6157.99552,N,04927.79699,W,,V,N*5D
20230628T192412355167,$IIDPT,566.47,1.09,*62
20230628T192412779046,$GPGSV,5,1,18,05,67,246,42,07,31,079,42,11,44,155,45,13,26,192,47*74
20230628T192412851667,$IIZDA,,,,,,*5F
20230628T192413295440,$IIGLL,6157.99552,N,04927.79258,W,,V,N*54
20230628T192413356589,$IIDPT,562.3,1.09,*56
20230628T192413779580,$GPGSV,5,1,18,05,68,246,46,07,31,079,44,09,17,051,36,11,44,155,48*75
20230628T192413856292,$IIZDA,,,,,,*5F
20230628T192413952283,$IIGSA,A,1,05,07,09,11,13,16,20,26,29,30,49,71,1,0.56,0.83,*17
20230628T192414300100,$IIGLL,6157.99552,N,04927.78874,W,,V,N*51
20230628T192414356683,$IIDPT,558.13,1.09,*6E
20230628T192414781773,$GPGSV,5,1,18,05,68,246,46,07,31,079,44,09,17,051,36,11,44,155,48*75
20230628T192415244015,$IIZDA,192350.499,28,06,2023,-01,59*66
20230628T192415310017,$IIGLL,6157.99552,N,04927.78509,W,,V,N*56
20230628T192415358047,$IIDPT,553.96,1.09,*68
20230628T192415783117,$GPGSV,5,1,18,05,68,246,44,07,31,079,42,11,44,155,45,13,26,192,45*7F
20230628T192415954958,$IIGSA,A,1,05,07,11,13,16,20,26,29,30,49,71,72,1,0.56,0.83,*1B
20230628T192416254347,$IIZDA,192351.499,28,06,2023,-01,59*67
20230628T192416310208,$IIGLL,6157.99552,N,04927.78125,W,,V,N*5C
20230628T192416797896,$GPGSV,5,2,18,16,13,002,36,20,76,137,46,26,09,331,38,29,40,269,44*74
20230628T192417258069,$IIZDA,192352.499,28,06,2023,-01,59*64
20230628T192417318151,$IIGLL,6157.9959,N,04927.77741,W,,V,N*69
20230628T192417350157,$IIDPT,553.96,1.09,*68
20230628T192417815099,$GPGSV,5,2,18,13,26,192,49,16,13,002,42,20,76,137,47,26,09,331,42*78
20230628T192417946212,$IIGSA,A,1,05,07,09,11,13,16,20,26,29,30,49,71,0.92,0.53,0.76,*3C
20230628T192418439855,$IIGLL,6157.9959,N,04927.77318,W,,V,N*61
20230628T192418751040,$IIZDA,,,,,,*5F
20230628T192418816521,$GPGSV,5,2,18,13,26,192,49,16,13,002,42,20,76,137,47,26,09,331,42*78
20230628T192418954365,$IIGSA,A,1,05,07,09,11,13,16,20,26,29,30,49,71,0.92,0.53,0.76,*3C
20230628T192419344562,$IIDPT,553.96,1.09,*68
20230628T192419449443,$IIGLL,6157.9959,N,04927.76934,W,,V,N*64
20230628T192419757619,$IIZDA,,,,,,*5F
20230628T192419819707,$GPGSV,5,2,18,16,13,002,43,20,76,137,49,26,09,331,42,29,40,269,46*76
20230628T192420351412,$IIDPT,553.96,1.09,*68
20230628T192420549983,$IIGLL,6157.9959,N,04927.76512,W,,V,N*6C
20230628T192420758339,$IIZDA,,,,,,*5F
20230628T192420827201,$GPGSV,5,2,18,16,13,002,43,20,76,137,49,26,09,331,42,29,40,269,46*76
20230628T192420951202,$IIGSA,A,1,05,07,11,13,16,20,26,29,30,49,71,72,0.92,0.53,0.76,*30
20230628T192421640415,$IIGLL,6157.99629,N,04927.76109,W,,V,N*53
20230628T192421855732,$IIZDA,,,,,,*5F
20230628T192421953900,$IIGSA,A,1,05,07,11,13,16,20,26,29,30,49,71,72,0.92,0.53,0.76,*30
20230628T192422348142,$IIDPT,553.96,1.09,*68
20230628T192422655358,$IIGLL,6157.99629,N,04927.75725,W,,V,N*58
20230628T192422777015,$GPGSV,5,1,18,05,68,246,43,07,31,079,42,11,44,155,46,13,26,192,47*79
20230628T192423239650,$IIZDA,192358.499,28,06,2023,-01,59*6E
20230628T192423354585,$IIDPT,553.96,1.09,*68
20230628T192423748747,$IIGLL,6157.99629,N,04927.75302,W,,V,N*59
20230628T192423797210,$GPGSV,5,1,18,05,68,246,44,07,31,079,44,11,44,155,45,13,26,192,47*7B
20230628T192423948116,$IIGSA,A,1,05,07,11,13,15,16,20,26,29,30,49,71,0.92,0.53,0.76,*31
20230628T192424250423,$IIZDA,192359.499,28,06,2023,-01,59*6F
20230628T192424357866,$IIDPT,553.96,1.09,*68
20230628T192424757412,$IIGLL,6157.99629,N,04927.74938,W,,V,N*5B
20230628T192424803262,$GPGSV,5,1,18,05,68,246,44,07,31,079,44,11,44,155,45,13,26,192,47*7B
20230628T192425447438,$IIDPT,553.96,1.09,*68
20230628T192425768855,$IIGLL,6157.99637,N,04927.74523,W,192401.099,A,D*5E
20230628T192425793307,$IIZDA,,,,,,*5F
20230628T192425817338,$GPGSV,5,1,18,05,68,246,46,07,31,079,46,11,44,155,49,13,26,192,48*78
20230628T192425945085,$IIGSA,A,1,05,07,11,13,15,16,20,26,29,30,49,71,0.92,0.53,0.76,*31
20230628T192426770446,$IIGLL,6157.99637,N,04927.74152,W,192402.099,A,D*5F
20230628T192426848797,$GPGSV,5,2,18,15,05,218,42,16,13,002,41,20,76,137,49,26,09,331,43*79
20230628T192426948196,$IIGSA,A,1,05,07,11,13,15,16,20,26,29,30,49,71,0.92,0.53,0.76,*31
20230628T192426971620,$IIZDA,,,,,,*5F
20230628T192427771208,$IIGLL,6157.99637,N,04927.7376,W,192403.099,A,D*6E
20230628T192428188076,$IIZDA,192403.499,28,06,2023,-01,59*67
20230628T192428781024,$IIGLL,6157.99637,N,04927.73368,W,192404.099,A,D*55
20230628T192428810460,$GPGSV,5,1,18,05,68,246,49,07,31,079,44,11,44,155,49,13,26,192,51*7D
20230628T192428945978,$IIGSA,A,1,05,07,11,13,15,16,20,26,29,30,49,71,0.92,0.53,0.76,*31
20230628T192429247212,$IIZDA,192404.499,28,06,2023,,*40
20230628T192429785405,$IIGLL,6157.99629,N,04927.72979,W,,V,N*58
20230628T192429814048,$GPGSV,5,2,18,16,13,002,39,20,76,137,46,26,09,331,42,29,40,269,43*71
20230628T192430253967,$IIZDA,192405.499,28,06,2023,,*41
20230628T192430893501,$IIGLL,6157.99629,N,04927.72557,W,,V,N*58
20230628T192430949569,$IIGSA,A,1,05,07,11,13,16,20,26,29,30,49,71,72,0.92,0.53,0.76,*30
20230628T192431780968,$GPGSV,5,1,18,05,68,246,46,07,31,079,44,11,44,155,47,13,26,192,47*7B
20230628T192431855048,$IIZDA,,,,,,*5F
20230628T192431903053,$IIGLL,6157.99629,N,04927.72173,W,,V,N*5A
20230628T192431951084,$IIGSA,A,1,05,07,11,13,15,16,20,26,29,30,49,71,0.92,0.53,0.76,*31
20230628T192432790136,$GPGSV,5,1,18,05,68,246,46,07,31,079,44,11,44,155,47,13,26,192,47*7B
20230628T192432905398,$IIGLL,6157.99629,N,04927.71789,W,,V,N*5A
20230628T192432954326,$IIZDA,,,,,,*5F
20230628T192433806306,$GPGSV,5,2,18,16,13,002,44,18,09,307,43,20,75,137,49,26,09,331,45*76
20230628T192433905906,$IIGLL,6157.99629,N,04927.71424,W,,V,N*5E
20230628T192433947262,$IIGSA,A,1,05,07,11,13,16,18,20,26,29,30,49,71,0.92,0.53,0.76,*3C
20230628T192433979228,$IIZDA,,,,,,*5F
20230628T192434809856,$GPGSV,5,2,18,16,13,002,44,18,09,307,43,20,75,137,49,26,09,331,45*76
20230628T192434914372,$IIGLL,6157.99629,N,04927.71021,W,,V,N*5F
20230628T192435199202,$IIZDA,192410.499,28,06,2023,-01,59*65
20230628T192435821859,$GPGSV,5,2,18,16,13,002,41,18,09,307,42,20,75,137,48,26,09,331,44*72
20230628T192435922308,$IIGLL,6157.99629,N,04927.70637,W,,V,N*5F
20230628T192435951445,$IIGSA,A,1,05,07,11,13,16,18,20,26,29,30,49,71,0.92,0.53,0.76,*3C
20230628T192436227077,$IIZDA,192411.499,28,06,2023,-01,59*64
20230628T192436823271,$GPGSV,5,2,18,16,13,002,41,18,09,307,42,20,75,137,48,26,09,331,44*72
20230628T192436928439,$IIGLL,6157.99629,N,04927.70253,W,,V,N*59
20230628T192437229480,$IIZDA,192412.499,28,06,2023,-01,59*67
20230628T192437829105,$GPGSV,5,2,18,18,09,307,39,20,75,137,43,26,09,331,37,29,40,269,41*74
20230628T192437934119,$IIGLL,6157.99629,N,04927.69888,W,,V,N*5D
20230628T192437955108,$IIGSA,A,1,05,07,11,13,18,20,26,29,30,49,71,72,0.92,0.53,0.76,*3E
20230628T192438241291,$IIZDA,192413.499,28,06,2023,-01,59*66
20230628T192438837160,$GPGSV,5,2,18,18,09,307,39,20,75,137,43,26,09,331,37,29,40,269,41*74
20230628T192438936860,$IIGLL,6157.99629,N,04927.69485,W,,V,N*5C
20230628T192438961630,$IIGSA,A,1,05,07,11,13,18,20,26,29,30,49,71,72,0.92,0.53,0.76,*3E
20230628T192439245271,$IIZDA,192414.499,28,06,2023,-01,59*61
20230628T192439842926,$GPGSV,5,2,18,18,09,307,40,20,75,137,45,26,09,331,40,29,40,268,44*78
20230628T192439946126,$IIGLL,6157.99629,N,04927.6912,W,,V,N*66
20230628T192439968994,$IIGSA,A,1,05,07,11,13,18,20,26,29,30,49,71,72,0.92,0.53,0.76,*3E
20230628T192440948180,$IIZDA,,,,,,*5F
20230628T192441052295,$IIGLL,6157.99629,N,04927.68717,W,,V,N*55
20230628T192441777194,$GPGSV,5,1,18,05,68,246,42,07,31,079,43,11,44,155,43,13,26,192,43*78
20230628T192441947761,$IIGSA,A,1,05,07,11,13,18,20,26,29,30,49,71,72,0.92,0.53,0.76,*3E
20230628T192441973150,$IIZDA,,,,,,*5F
20230628T192442147609,$IIGLL,6157.99629,N,04927.68294,W,,V,N*5B
20230628T192442782909,$GPGSV,5,1,18,05,68,246,42,07,31,079,43,11,44,155,43,13,26,192,43*78
20230628T192442949042,$IIGSA,A,1,05,07,11,13,18,20,26,29,30,49,71,72,0.92,0.53,0.76,*3E
20230628T192443053193,$IIZDA,,,,,,*5F
20230628T192443154227,$IIGLL,6157.99629,N,04927.6791,W,,V,N*63
20230628T192443844961,$GPGSV,5,2,18,16,13,002,39,18,09,307,43,20,75,137,49,26,09,331,43*7A
20230628T192443950311,$IIGSA,A,1,05,07,11,13,16,18,20,26,29,30,49,71,0.92,0.53,0.76,*3C
20230628T192444165930,$IIGLL,6157.99629,N,04927.67488,W,,V,N*5F
20230628T192444196760,$IIZDA,192419.499,28,06,2023,-01,59*6C
20230628T192444847845,$GPGSV,5,2,18,16,13,002,39,18,09,307,43,20,75,137,49,26,09,331,43*7A
20230628T192445176767,$IIGLL,6157.99629,N,04927.67104,W,,V,N*5E
20230628T192445200698,$IIZDA,192420.499,28,06,2023,-01,59*66
20230628T192445945595,$IIGSA,A,1,05,07,11,13,16,20,26,29,30,49,71,72,0.92,0.53,0.76,*30
20230628T192446346649,$IIGLL,6157.99629,N,04927.66701,W,,V,N*5C
20230628T192446780768,$GPGSV,5,1,18,05,68,246,43,07,31,079,44,11,44,155,45,13,26,192,46*7D
20230628T192446945383,$IIZDA,,,,,,*5F
20230628T192447455651,$IIGLL,6157.99629,N,04927.66259,W,,V,N*54
20230628T192447783453,$GPGSV,5,1,18,05,68,246,44,07,31,079,43,11,44,155,46,13,26,192,49*71
20230628T192447950160,$IIGSA,A,1,05,07,11,13,16,20,26,29,30,49,71,72,0.92,0.53,0.76,*30
20230628T192447973536,$IIZDA,,,,,,*5F
20230628T192448456113,$IIGLL,6157.99629,N,04927.65894,W,,V,N*5C
20230628T192448845587,$GPGSV,5,2,18,16,13,002,39,20,75,137,46,26,09,331,43,29,40,268,45*74
20230628T192448950407,$IIGSA,A,1,05,07,11,13,16,20,26,29,30,49,71,72,0.92,0.53,0.76,*30
20230628T192449048350,$IIZDA,,,,,,*5F
20230628T192449544146,$IIGLL,6157.99629,N,04927.65491,W,,V,N*55
20230628T192450195687,$IIZDA,192425.499,28,06,2023,-01,59*63
20230628T192450648500,$IIGLL,6157.99629,N,04927.6505,W,,V,N*6C
20230628T192450787936,$GPGSV,5,1,18,05,68,246,46,07,31,079,46,11,44,155,50,13,26,192,50*79
20230628T192450948770,$IIGSA,A,1,05,07,11,13,15,16,20,26,29,30,49,71,0.92,0.53,0.76,*31
20230628T192451208080,$IIZDA,192426.499,28,06,2023,-01,59*60
20230628T192451753684,$IIGLL,6157.99629,N,04927.64646,W,,V,N*5C
20230628T192451804893,$GPGSV,5,1,18,05,68,246,44,07,31,079,44,11,44,155,46,13,26,192,47*78
20230628T192452217206,$IIZDA,192427.499,28,06,2023,-01,59*61
20230628T192452765957,$IIGLL,6157.99678,N,04927.64236,W,192428.099,A,D*5C
20230628T192452847822,$GPGSV,5,2,18,15,05,218,38,20,75,137,47,26,09,331,42,29,40,268,46*7B
20230628T192452943793,$IIGSA,A,1,05,07,11,13,15,20,26,29,30,49,71,72,0.92,0.53,0.76,*33
20230628T192453218307,$IIZDA,192428.499,28,06,2023,-01,59*6E
20230628T192453766030,$IIGLL,6157.99678,N,04927.63844,W,192429.099,A,D*55
20230628T192453849415,$GPGSV,5,2,18,16,13,002,39,20,75,137,47,26,09,331,42,29,40,268,44*75
20230628T192454779291,$IIGLL,6157.99678,N,04927.63473,W,192430.099,A,D*55
20230628T192454942419,$IIGSA,A,1,05,07,11,13,16,20,26,29,30,49,71,72,0.92,0.53,0.76,*30
20230628T192454969261,$IIZDA,,,,,,*5F
