20230628T192651440179,$IIDPT,725.78,1.09,*6B
20230628T192651456178,$IIGLL,6157.99552,N,04927.18912,W,,V,N*56
20230628T192651472178,$IIZDA,192626.499,28,06,2023,-01,59*62
20230628T192651488175,$IIGSA,A,1,05,07,09,11,13,20,26,29,30,49,70,71,0.93,0.53,0.77,*3C
20230628T192651504174,$GPGSV,5,1,18,05,69,245,42,07,32,078,43,09,16,051,37,11,43,155,43*7A
20230628T192652535755,$IIGLL,6157.99552,N,04927.1849,W,,V,N*61
20230628T192652637029,$IIZDA,,,,,,*5F
20230628T192652773663,$GPGSV,5,1,18,05,69,245,47,07,32,078,47,11,43,155,45,13,27,192,48*72
20230628T192652889416,$IIGSA,A,1,05,07,11,13,15,18,20,26,29,30,49,71,0.93,0.53,0.77,*3F
20230628T192653234928,$IIDPT,725.78,1.09,*6B
20230628T192653539827,$IIGLL,6157.99552,N,04927.18106,W,,V,N*5B
20230628T192653735796,$IIZDA,,,,,,*5F
20230628T192653786739,$GPGSV,5,1,18,05,69,245,43,07,32,078,44,11,43,155,47,13,27,192,45*7A
20230628T192653901933,$IIGSA,A,1,05,07,11,13,15,18,20,29,30,49,70,71,0.93,0.53,0.77,*3C
20230628T192654240288,$IIDPT,725.88,1.09,*64
20230628T192654595007,$IIGLL,6157.99552,N,04927.17702,W,,V,N*56
20230628T192655147189,$IIZDA,192630.499,28,06,2023,-01,59*65
20230628T192655241886,$IIDPT,725.92,1.09,*6F
20230628T192655606469,$IIGLL,6157.99552,N,04927.17299,W,,V,N*51
20230628T192655770628,$GPGSV,5,1,18,05,69,245,46,07,32,078,46,09,16,051,38,11,43,155,47*70
20230628T192655826075,$IIGSA,A,1,05,07,09,11,13,15,18,20,26,29,30,49,0.93,0.53,0.77,*30
20230628T192656151714,$IIZDA,192631.499,28,06,2023,-01,59*64
20230628T192656618835,$IIGLL,6157.99552,N,04927.16915,W,,V,N*5F
20230628T192656780740,$GPGSV,5,1,18,05,69,245,46,07,32,078,46,09,16,051,38,11,43,155,47*70
20230628T192656918421,$IIGSA,A,1,05,07,09,11,13,15,18,20,26,29,30,49,0.93,0.53,0.77,*30
20230628T192657211699,$IIZDA,192632.499,28,06,2023,,*47
20230628T192657254252,$IIDPT,726.01,1.09,*66
20230628T192657623504,$IIGLL,6157.99552,N,04927.16531,W,,V,N*55
20230628T192657782432,$GPGSV,5,2,18,13,28,192,50,15,06,218,43,18,10,307,43,20,75,135,49*7F
20230628T192658225851,$IIZDA,192633.499,28,06,2023,,*46
20230628T192658625012,$IIGLL,6157.99552,N,04927.16147,W,,V,N*50
20230628T192658786702,$GPGSV,5,3,18,26,09,330,41,29,40,267,44,30,25,111,51,49,07,122,41*7D
20230628T192658818913,$IIGSA,A,1,05,07,09,11,13,15,18,20,26,29,30,49,0.93,0.53,0.77,*30
20230628T192659238695,$IIDPT,725.92,1.09,*6F
20230628T192659628617,$IIGLL,6157.99552,N,04927.15744,W,,V,N*56
20230628T192659657550,$IIZDA,,,,,,*5F
20230628T192659937566,$IIGSA,A,1,05,07,11,13,18,20,29,30,49,70,71,72,0.93,0.53,0.77,*3D
20230628T192700240769,$IIDPT,725.87,1.09,*6B
20230628T192700632279,$IIGLL,6157.99514,N,04927.15379,W,,V,N*5E
20230628T192700661564,$IIZDA,,,,,,*5F
20230628T192700773631,$GPGSV,5,1,18,05,69,245,43,07,32,078,43,11,43,155,45,13,28,192,45*70
20230628T192701337176,$IIDPT,725.87,1.09,*6B
20230628T192701639312,$IIGLL,6157.99514,N,04927.14957,W,,V,N*59
20230628T192701735193,$IIZDA,,,,,,*5F
20230628T192701781328,$GPGSV,5,1,18,05,69,245,44,07,32,078,46,11,43,155,47,13,28,192,46*73
20230628T192701932459,$IIGSA,A,1,05,07,11,13,15,18,20,26,29,30,49,70,0.94,0.54,0.77,*3E
20230628T192702339855,$IIDPT,725.73,1.09,*60
20230628T192702654850,$IIGLL,6157.99514,N,04927.14592,W,,V,N*5C
20230628T192702735480,$IIZDA,,,,,,*5F
20230628T192702783443,$GPGSV,5,1,18,05,69,245,44,07,32,078,46,11,43,155,47,13,28,192,46*73
20230628T192702934983,$IIGSA,A,1,05,07,11,13,15,18,20,26,29,30,49,70,0.94,0.54,0.77,*3E
20230628T192703343435,$IIDPT,725.73,1.09,*60
20230628T192703746259,$IIGLL,6157.99513,N,04927.1416,W,192639.099,A,D*67
20230628T192703781397,$IIZDA,,,,,,*5F
20230628T192703813454,$GPGSV,5,1,18,05,69,245,47,07,32,078,47,09,16,051,42,11,43,155,48*72
20230628T192704753321,$IIGLL,6157.99513,N,04927.13789,W,192640.099,A,D*5F
20230628T192704781729,$IIZDA,,,,,,*5F
20230628T192704814384,$GPGSV,5,1,18,05,69,245,47,07,32,078,47,09,16,051,42,11,43,155,48*72
20230628T192704870413,$IIGSA,A,1,05,07,09,11,13,15,18,20,26,29,30,49,0.93,0.53,0.77,*30
20230628T192705329741,$IIDPT,725.55,1.09,*64
20230628T192705767735,$IIGLL,6157.99514,N,04927.13402,W,,V,N*53
20230628T192705801023,$IIZDA,,,,,,*5F
20230628T192705930493,$IIGSA,A,1,05,07,09,11,13,18,20,29,30,49,70,71,0.93,0.53,0.77,*31
20230628T192706333476,$IIDPT,725.55,1.09,*64
20230628T192706775130,$GPGSV,5,1,18,05,69,245,43,07,32,078,44,09,16,051,39,11,43,155,45*74
20230628T192706838981,$IIZDA,,,,,,*5F
20230628T192706870946,$IIGLL,6157.99514,N,04927.12979,W,,V,N*53
20230628T192706942939,$IIGSA,A,1,05,07,09,11,13,18,20,29,30,49,70,71,0.93,0.53,0.77,*31
20230628T192707778855,$GPGSV,5,2,18,13,28,192,46,15,06,218,39,18,10,307,42,20,74,134,46*7B
20230628T192707977762,$IIGLL,6157.99514,N,04927.12557,W,,V,N*53
20230628T192708141754,$IIZDA,192643.499,28,06,2023,-01,59*61
20230628T192708333745,$IIDPT,725.34,1.09,*63
20230628T192708781472,$GPGSV,5,2,18,13,28,192,46,15,06,218,39,18,10,307,42,20,74,134,46*7B
20230628T192708941355,$IIGSA,A,1,05,07,09,11,13,15,18,20,29,30,49,70,0.93,0.53,0.77,*33
20230628T192708987351,$IIGLL,6157.99514,N,04927.12173,W,,V,N*51
20230628T192709237494,$IIZDA,192644.499,28,06,2023,-01,59*66
20230628T192709334592,$IIDPT,725.34,1.09,*63
20230628T192709785088,$GPGSV,5,3,18,26,09,330,39,29,40,267,39,30,25,111,47,49,07,122,38*71
20230628T192709988258,$IIGLL,6157.99514,N,04927.11789,W,,V,N*51
20230628T192710240795,$IIZDA,192645.499,28,06,2023,-01,59*67
20230628T192710788757,$GPGSV,5,3,18,26,09,330,39,29,40,267,39,30,25,111,47,49,07,122,38*71
20230628T192710804415,$IIGSA,A,1,05,07,09,11,13,15,18,20,26,29,30,49,0.94,0.54,0.78,*3F
20230628T192710995841,$IIGLL,6157.99514,N,04927.11424,W,,V,N*55
20230628T192711242634,$IIZDA,192646.499,28,06,2023,,*44
20230628T192711327328,$IIDPT,725.64,1.09,*66
20230628T192711931997,$IIGSA,A,1,05,07,11,13,18,20,29,30,49,70,71,72,0.93,0.53,0.77,*3D
20230628T192712003273,$IIGLL,6157.99514,N,04927.1104,W,,V,N*63
20230628T192712339977,$IIDPT,725.77,1.09,*64
20230628T192712746563,$IIZDA,,,,,,*5F
20230628T192713006487,$IIGLL,6157.99514,N,04927.10656,W,,V,N*53
20230628T192713764455,$IIZDA,192649,28,06,2023,,*51
20230628T192714012449,$IIGLL,6157.9979,N,04927.1401,W,,V,N*5D
20230628T192714327931,$IIDPT,725.46,1.09,*66
20230628T192714777520,$GPGSV,5,1,18,05,69,245,40,07,32,078,41,09,16,051,38,11,43,155,44*72
20230628T192714838400,$IIZDA,,,,,,*5F
20230628T192714942557,$IIGSA,A,1,05,07,09,11,13,18,20,29,30,49,70,71,0.93,0.53,0.77,*31
20230628T192715015836,$IIGLL,6157.99514,N,04927.09888,W,,V,N*56
20230628T192715330807,$IIDPT,725.46,1.09,*66
20230628T192716024319,$IIGLL,6157.99514,N,04927.09504,W,,V,N*5F
20230628T192716234644,$IIZDA,192651.499,28,06,2023,-01,59*62
20230628T192716775395,$GPGSV,5,1,18,05,69,245,45,07,32,078,44,09,16,051,39,11,43,155,45*72
20230628T192716937410,$IIGSA,A,1,05,07,09,11,13,15,18,20,29,30,49,71,0.93,0.53,0.77,*32
20230628T192717027199,$IIGLL,6157.99475,N,04927.09139,W,,V,N*53
20230628T192717334951,$IIDPT,724.93,1.09,*6F
20230628T192717731164,$IIZDA,,,,,,*5F
20230628T192717784832,$GPGSV,5,1,18,05,69,245,42,07,32,078,42,11,43,155,43,13,28,192,44*77
20230628T192718031350,$IIGLL,6157.99475,N,04927.08755,W,,V,N*5E
20230628T192718734772,$IIZDA,,,,,,*5F
20230628T192718792773,$GPGSV,5,2,18,15,06,218,36,18,10,307,39,20,74,134,42,29,40,267,37*74
20230628T192718930151,$IIGSA,A,1,05,07,11,13,15,18,20,29,30,49,70,71,0.94,0.54,0.78,*33
20230628T192719035088,$IIGLL,6157.99475,N,04927.08352,W,,V,N*5D
20230628T192719439604,$IIDPT,724.45,1.09,*64
20230628T192719737419,$IIZDA,192655,28,06,2023,,*5C
20230628T192720064461,$IIGLL,6157.9968,N,04927.1171,W,,V,N*5F
20230628T192720756597,$IIZDA,192656,28,06,2023,,*5F
20230628T192720862429,$IIGSA,A,1,05,07,11,13,15,18,20,29,30,49,70,71,0.94,0.54,0.78,*33
20230628T192721140869,$IIGLL,6157.99475,N,04927.07507,W,,V,N*54
20230628T192721446010,$IIDPT,723.53,1.09,*64
20230628T192721816437,$IIZDA,,,,,,*5F
20230628T192722244663,$IIGLL,6157.997,N,04927.1071,W,,V,N*67
20230628T192722888838,$IIZDA,,,,,,*5F
20230628T192723749012,$IIGLL,6157.99475,N,04927.06566,W,,V,N*52
20230628T192723873542,$IIGSA,A,1,05,07,11,13,15,18,20,29,30,49,70,71,0.93,0.53,0.77,*3C
20230628T192724068706,$IIZDA,,,,,,*5F
20230628T192724437903,$IIDPT,723.52,1.09,*65
20230628T192724760936,$IIGLL,6157.99437,N,04927.06144,W,,V,N*50
20230628T192724793121,$GPGSV,5,1,18,05,69,245,42,07,32,077,44,09,16,051,38,11,43,155,44*7A
20230628T192724874302,$IIGSA,A,1,05,07,09,11,13,15,20,29,30,49,70,71,0.93,0.53,0.77,*3C
20230628T192725137928,$IIZDA,192700.499,28,06,2023,-01,59*67
20230628T192725770902,$IIGLL,6157.99437,N,04927.05779,W,,V,N*5B
20230628T192725799122,$GPGSV,5,1,18,05,69,245,45,07,32,077,49,09,16,051,41,11,43,155,50*7B
20230628T192725879081,$IIGSA,A,1,05,07,09,11,13,15,18,20,26,29,30,49,0.93,0.53,0.77,*30
20230628T192726147768,$IIZDA,192701.499,28,06,2023,-01,59*66
20230628T192726430410,$IIDPT,723.09,1.09,*6B
20230628T192726838988,$IIGLL,6157.99437,N,04927.05338,W,,V,N*5A
20230628T192726883973,$IIGSA,A,1,05,07,09,11,13,15,18,20,26,29,30,49,0.93,0.53,0.77,*30
20230628T192727152412,$IIZDA,192702.499,28,06,2023,-01,59*65
20230628T192727439726,$IIDPT,722.83,1.09,*68
20230628T192727761594,$GPGSV,5,1,18,05,69,245,48,07,32,077,49,09,16,051,42,11,43,155,48*7C
20230628T192727844723,$IIGLL,6157.99437,N,04927.04973,W,,V,N*5E
20230628T192727884748,$IIGSA,A,1,05,07,09,11,13,15,18,20,26,29,30,49,0.93,0.53,0.77,*30
20230628T192728186248,$IIZDA,192703.499,28,06,2023,,*44
20230628T192728765207,$GPGSV,5,1,18,05,69,245,48,07,32,077,49,09,16,051,42,11,43,155,48*7C
20230628T192728846820,$IIGLL,6157.99437,N,04927.04589,W,,V,N*57
20230628T192728894847,$IIGSA,A,1,05,07,09,11,13,15,18,20,26,29,30,49,0.93,0.53,0.77,*30
20230628T192729438874,$IIDPT,722.54,1.09,*62
20230628T192729831346,$IIZDA,,,,,,*5F
20230628T192729861025,$IIGLL,6157.99437,N,04927.04186,W,,V,N*5C
20230628T192729900987,$IIGSA,A,1,05,07,09,11,13,15,18,20,26,29,30,49,0.94,0.54,0.78,*3F
20230628T192730770614,$GPGSV,5,1,18,05,69,245,42,07,32,077,43,11,43,155,44,13,28,192,46*7C
20230628T192730836803,$IIZDA,,,,,,*5F
20230628T192730868810,$IIGLL,6157.99437,N,04927.03802,W,,V,N*5E
20230628T192731430491,$IIDPT,722.26,1.09,*67
20230628T192731900072,$IIGSA,A,1,05,07,09,11,13,15,18,20,29,30,49,71,0.94,0.54,0.78,*3D
20230628T192731939515,$IIZDA,,,,,,*5F
20230628T192732035467,$IIGLL,6157.99437,N,04927.03398,W,,V,N*56
20230628T192732433172,$IIDPT,721.67,1.09,*61
20230628T192732776458,$GPGSV,5,1,18,05,69,245,41,07,32,077,42,09,15,051,37,11,43,155,44*73
20230628T192732902680,$IIGSA,A,1,05,07,09,11,13,15,18,20,29,30,49,71,0.93,0.53,0.77,*32
20230628T192733039377,$IIGLL,6157.99437,N,04927.02995,W,,V,N*50
20230628T192733151515,$IIZDA,192708.499,28,06,2023,-01,59*6F
20230628T192733780494,$GPGSV,5,2,18,13,28,192,48,15,06,219,43,18,10,307,43,20,74,134,49*77
20230628T192733913666,$IIGSA,A,1,05,07,09,11,13,15,18,20,26,29,30,49,0.93,0.53,0.77,*30
20230628T192734113246,$IIGLL,6157.99437,N,04927.02592,W,,V,N*5B
20230628T192734159212,$IIZDA,192709.499,28,06,2023,-01,59*6E
20230628T192734437074,$IIDPT,720.29,1.09,*6A
20230628T192734789909,$GLGSV,5,4,18,71,57,227,42,78,16,347,44,79,25,040,43,85,27,172,45*67
20230628T192734924296,$IIGSA,A,1,05,07,09,11,13,15,18,20,26,29,30,49,0.94,0.54,0.78,*3F
20230628T192735115661,$IIGLL,6157.99437,N,04927.02208,W,,V,N*5F
20230628T192735165264,$IIZDA,192710.499,28,06,2023,-01,59*66
20230628T192735441379,$IIDPT,719.65,1.09,*68
20230628T192735927341,$IIGSA,A,1,05,07,09,11,13,15,18,20,26,29,30,49,0.94,0.54,0.78,*3F
20230628T192736132231,$IIGLL,6157.99437,N,04927.01805,W,,V,N*5B
20230628T192736220820,$IIZDA,192711.499,28,06,2023,,*47
20230628T192736774761,$GPGSV,5,1,18,05,69,245,48,07,32,077,50,09,15,051,42,11,43,155,49*76
20230628T192736936377,$IIGSA,A,1,05,07,09,11,13,15,18,20,26,29,30,49,0.94,0.54,0.78,*3F
20230628T192737143056,$IIGLL,6157.99437,N,04927.01402,W,,V,N*50
20230628T192737221290,$IIZDA,192712.499,28,06,2023,,*44
20230628T192737533493,$IIDPT,719.65,1.09,*68
20230628T192737780372,$GPGSV,5,2,18,15,06,219,42,18,10,307,40,20,74,134,47,29,40,267,41*7C
20230628T192738146192,$IIGLL,6157.99437,N,04927.01018,W,,V,N*5F
20230628T192738780931,$GPGSV,5,2,18,15,06,219,42,18,10,307,40,20,74,134,47,29,40,267,41*7C
20230628T192738853949,$IIGSA,A,1,05,07,11,13,15,18,20,29,30,49,70,71,0.94,0.54,0.78,*33
20230628T192738937237,$IIZDA,,,,,,*5F
20230628T192739146774,$IIGLL,6157.99437,N,04927.00614,W,,V,N*54
20230628T192739533806,$IIDPT,717.7,1.09,*52
20230628T192739861670,$IIGSA,A,1,05,07,11,13,15,18,20,26,29,30,49,71,0.93,0.53,0.77,*3F
20230628T192740037772,$IIZDA,,,,,,*5F
20230628T192740263841,$IIGLL,6157.99437,N,04927.00192,W,,V,N*5D
20230628T192740536450,$IIDPT,716.93,1.09,*6E
20230628T192740771238,$GPGSV,5,1,18,05,69,245,47,07,32,077,48,11,42,155,48,13,28,192,49*70
20230628T192740868133,$IIGSA,A,1,05,07,11,13,15,18,20,26,29,30,49,71,0.93,0.53,0.77,*3F
20230628T192741163948,$IIZDA,192716.499,28,06,2023,-01,59*60
20230628T192741429598,$IIGLL,6157.99437,N,04926.9977,W,,V,N*66
20230628T192742462607,$IIGLL,6157.99437,N,04926.99347,W,,V,N*56
20230628T192742536632,$IIDPT,716.48,1.09,*68
20230628T192742632619,$IIZDA,192718,28,06,2023,,*54
20230628T192743475921,$IIGLL,6157.99437,N,04926.98982,W,,V,N*54
20230628T192743768504,$GPGSV,5,1,18,05,69,245,39,07,32,077,39,11,42,155,41,13,28,192,41*7E
20230628T192743883195,$IIGSA,A,1,05,07,11,13,15,20,29,30,49,70,71,72,0.93,0.53,0.77,*30
20230628T192743935421,$IIZDA,,,,,,*5F
20230628T192744484729,$IIGLL,6157.99437,N,04926.98579,W,,V,N*5C
20230628T192744539086,$IIDPT,715.1,1.09,*56
20230628T192744776303,$GPGSV,5,2,18,15,06,219,37,20,74,134,40,29,40,267,35,30,25,111,43*70
20230628T192745031318,$IIZDA,,,,,,*5F
20230628T192745489249,$IIGLL,6157.99437,N,04926.98195,W,,V,N*5A
20230628T192745786922,$GPGSV,5,3,18,26,09,330,38,29,40,267,41,30,25,111,51,49,07,122,41*76
20230628T192745824020,$IIGSA,A,1,05,07,09,11,13,15,18,20,26,29,30,49,0.94,0.54,0.78,*3F
20230628T192746033599,$IIZDA,,,,,,*5F
20230628T192746490822,$IIGLL,6157.99437,N,04926.97811,W,,V,N*50
20230628T192746540824,$IIDPT,708.92,1.09,*60
20230628T192746898933,$IIGSA,A,1,05,07,09,11,13,15,18,20,26,29,30,49,0.94,0.54,0.78,*3F
20230628T192747033931,$IIZDA,,,,,,*5F
20230628T192747493419,$IIGLL,6157.99437,N,04926.97427,W,,V,N*59
20230628T192747766025,$GPGSV,5,1,18,05,69,245,44,07,32,077,46,09,15,051,38,11,42,155,47*7F
20230628T192748037555,$IIZDA,,,,,,*5F
20230628T192748498961,$IIGLL,6157.99437,N,04926.97043,W,,V,N*5F
20230628T192748535584,$IIDPT,706.17,1.09,*63
20230628T192748772487,$GPGSV,5,1,18,05,69,245,44,07,32,077,46,09,15,051,38,11,42,155,47*7F
20230628T192748890411,$IIGSA,A,1,05,07,09,11,13,15,18,20,29,30,49,71,0.94,0.53,0.78,*3A
20230628T192749037871,$IIZDA,,,,,,*5F
20230628T192749500803,$IIGLL,6157.99437,N,04926.96659,W,,V,N*53
20230628T192749908782,$IIGSA,A,1,05,07,11,13,15,18,20,26,29,30,49,70,0.94,0.54,0.78,*31
20230628T192750201349,$IIZDA,192725.499,28,06,2023,-01,59*60
20230628T192750504367,$IIGLL,6157.99437,N,04926.96275,W,,V,N*59
20230628T192750534904,$IIDPT,703.8,1.09,*58
20230628T192750765288,$GPGSV,5,1,18,05,69,245,49,07,32,077,48,11,42,155,51,13,28,192,52*7C
20230628T192750910456,$IIGSA,A,1,05,07,11,13,15,18,20,26,29,30,49,70,0.94,0.53,0.78,*36
20230628T192751202848,$IIZDA,192726.499,28,06,2023,-01,59*63
20230628T192751507014,$IIGLL,6157.99437,N,04926.95891,W,,V,N*5A
20230628T192751540140,$IIDPT,701.69,1.09,*6D
20230628T192751770654,$GPGSV,5,1,18,05,69,245,45,07,32,077,46,11,42,155,47,13,28,192,47*7D
20230628T192752214682,$IIZDA,192727.499,28,06,2023,-01,59*62
20230628T192752518638,$IIGLL,6157.99398,N,04926.95526,W,,V,N*59
20230628T192752543063,$IIDPT,700.52,1.09,*64
20230628T192752772427,$GPGSV,5,1,18,05,69,245,45,07,32,077,46,11,42,155,47,13,28,192,47*7D
20230628T192752922391,$IIGSA,A,1,05,07,11,13,15,18,20,26,29,30,49,71,0.94,0.54,0.78,*30
20230628T192753215554,$IIZDA,192728.499,28,06,2023,,*4D
20230628T192753639255,$IIGLL,6157.99398,N,04926.95085,W,,V,N*55
20230628T192753926537,$IIGSA,A,1,05,07,11,13,15,20,29,30,49,70,71,72,0.94,0.54,0.78,*3F
20230628T192754218209,$IIZDA,192729.499,28,06,2023,,*4C
20230628T192754526175,$IIDPT,701.16,1.09,*65
20230628T192754737557,$IIGLL,6157.99398,N,04926.94662,W,,V,N*5B
20230628T192754783393,$GPGSV,5,1,18,05,69,245,42,07,32,077,43,11,42,155,44,13,28,192,45*7E
20230628T192754927029,$IIGSA,A,1,05,07,11,13,15,20,29,30,49,70,71,72,0.94,0.54,0.78,*3F
20230628T192755221823,$IIZDA,192730.499,28,06,2023,,*44
20230628T192755624742,$IIDPT,701.16,1.09,*65
20230628T192755738469,$IIGLL,6157.99398,N,04926.94278,W,,V,N*54
20230628T192755787374,$GPGSV,5,1,18,05,69,245,45,07,32,077,48,11,42,155,49,13,28,192,48*72
20230628T192756229722,$IIZDA,192731.499,28,06,2023,,*45
20230628T192756627564,$IIDPT,703.1,1.09,*51
20230628T192756738897,$IIGLL,6157.99398,N,04926.93894,W,,V,N*5B
20230628T192756791422,$GPGSV,5,1,18,05,69,245,45,07,32,077,48,11,42,155,49,13,28,192,48*72
20230628T192756927613,$IIGSA,A,1,05,07,11,13,15,18,20,29,30,49,70,71,0.95,0.55,0.78,*33
20230628T192757234833,$IIZDA,192732.499,28,06,2023,,*46
20230628T192757634351,$IIDPT,704.12,1.09,*64
20230628T192757746239,$IIGLL,6157.99431,N,04926.93482,W,192733.099,A,D*5A
20230628T192757932850,$IIGSA,A,1,05,07,11,13,15,20,26,29,30,49,70,71,0.94,0.53,0.78,*39
20230628T192758637880,$IIDPT,704.12,1.09,*64
20230628T192758754813,$IIGLL,6157.99431,N,04926.9309,W,192734.099,A,D*6A
20230628T192758792762,$GPGSV,5,1,18,05,69,245,44,07,32,077,44,11,42,155,45,13,28,192,45*7E
20230628T192758935790,$IIGSA,A,1,05,07,11,13,15,20,26,29,30,49,70,71,0.95,0.55,0.78,*3E
20230628T192759034698,$IIZDA,,,,,,*5F
20230628T192759766555,$IIGLL,6157.99398,N,04926.92704,W,,V,N*5C
20230628T192759798528,$GPGSV,5,2,18,15,06,219,40,18,10,307,35,20,74,134,44,29,40,267,37*7E
20230628T192800035440,$IIZDA,,,,,,*5F
20230628T192800628579,$IIDPT,705.13,1.09,*64
20230628T192800770724,$IIGLL,6157.99398,N,04926.9232,W,,V,N*6E
20230628T192800798833,$GPGSV,5,1,18,05,69,245,40,07,32,077,43,11,42,155,44,13,28,192,43*7A
20230628T192800933858,$IIGSA,A,1,05,07,11,13,15,18,20,29,30,49,70,71,0.94,0.53,0.78,*34
20230628T192801037458,$IIZDA,,,,,,*5F
20230628T192801632220,$IIDPT,701.84,1.09,*6E
20230628T192801845115,$IIGLL,6157.99398,N,04926.91898,W,,V,N*55
20230628T192802135106,$IIZDA,,,,,,*5F
20230628T192802634832,$IIDPT,701.84,1.09,*6E
20230628T192802766641,$GPGSV,5,1,18,05,69,245,42,07,32,077,44,11,42,155,43,13,28,192,46*7D
20230628T192802848440,$IIGLL,6157.99398,N,04926.91514,W,,V,N*5C
20230628T192802937117,$IIGSA,A,1,05,07,11,13,15,18,20,29,30,49,70,71,0.95,0.55,0.78,*33
20230628T192803137628,$IIZDA,,,,,,*5F
20230628T192803779050,$GPGSV,5,2,18,15,07,219,47,18,10,307,41,20,74,133,49,26,09,330,39*7E
20230628T192803995723,$IIGLL,6157.99398,N,04926.9111,W,,V,N*6C
20230628T192804139335,$IIZDA,192739.499,28,06,2023,-01,59*6D
20230628T192804628427,$IIDPT,698.98,1.09,*62
20230628T192804937945,$IIGSA,A,1,05,07,11,13,15,18,20,26,29,30,49,70,0.94,0.53,0.78,*36
20230628T192804999621,$IIGLL,6157.99398,N,04926.90707,W,,V,N*5D
20230628T192805228865,$IIZDA,192740.499,28,06,2023,,*43
20230628T192805637419,$IIDPT,697.81,1.09,*65
20230628T192805765176,$GPGSV,5,1,18,05,69,245,42,07,32,077,43,11,42,155,45,13,28,192,45*7F
20230628T192806006291,$IIGLL,6157.99398,N,04926.90323,W,,V,N*5F
20230628T192806230646,$IIZDA,192741.499,28,06,2023,,*42
20230628T192806771472,$GPGSV,5,1,18,05,69,245,42,07,32,077,43,11,42,155,45,13,28,192,45*7F
20230628T192806929652,$IIGSA,A,1,05,07,11,13,15,18,20,29,30,49,70,71,0.94,0.54,0.78,*33
20230628T192807015230,$IIGLL,6157.99398,N,04926.89958,W,,V,N*51
20230628T192807634373,$IIDPT,696.65,1.09,*6E
20230628T192807779782,$GPGSV,5,2,18,13,28,192,49,15,07,219,46,18,10,307,40,20,74,133,48*77
20230628T192807935115,$IIGSA,A,1,05,07,09,11,13,15,18,20,29,30,49,70,0.94,0.54,0.78,*3C
20230628T192808015909,$IIGLL,6157.99398,N,04926.89574,W,,V,N*53
20230628T192808039906,$IIZDA,,,,,,*5F
20230628T192808637106,$IIDPT,696.65,1.09,*6E
20230628T192808935520,$IIGSA,A,1,05,07,09,11,13,15,18,20,29,30,49,70,0.94,0.53,0.78,*3B
20230628T192809023298,$IIGLL,6157.99398,N,04926.89171,W,,V,N*52
20230628T192809047337,$IIZDA,,,,,,*5F
20230628T192809757247,$GPGSV,5,1,18,05,69,245,46,07,32,077,48,11,42,155,49,13,28,192,49*70
20230628T192810031597,$IIGLL,6157.99398,N,04926.88787,W,,V,N*5C
20230628T192810055630,$IIZDA,,,,,,*5F
20230628T192810644282,$IIDPT,694.69,1.09,*60
20230628T192810768612,$GPGSV,5,1,18,05,69,245,46,07,32,077,48,11,42,155,49,13,28,192,49*70
20230628T192810929670,$IIGSA,A,1,05,07,11,13,15,18,20,29,30,49,70,71,0.94,0.54,0.78,*33
20230628T192811036155,$IIGLL,6157.99398,N,04926.88422,W,,V,N*50
20230628T192811131092,$IIZDA,,,,,,*5F
20230628T192811725060,$IIDPT,693.05,1.09,*6D
20230628T192811779599,$GPGSV,5,1,18,05,69,245,46,07,32,077,47,11,42,155,48,13,28,192,48*7F
20230628T192811931077,$IIGSA,A,1,05,07,11,13,15,18,20,29,30,49,70,71,0.94,0.53,0.78,*34
20230628T192812051062,$IIGLL,6157.99398,N,04926.87981,W,,V,N*5B
20230628T192812147024,$IIZDA,192747.499,28,06,2023,-01,59*64
20230628T192812728783,$IIDPT,693.05,1.09,*6D
20230628T192812783183,$GPGSV,5,1,18,05,69,245,46,07,32,077,47,11,42,155,48,13,28,192,48*7F
20230628T192812934977,$IIGSA,A,1,05,07,11,13,15,18,20,29,30,49,70,71,0.94,0.54,0.78,*33
20230628T192813130613,$IIGLL,6157.99398,N,04926.87578,W,,V,N*51
20230628T192813164059,$IIZDA,192748.499,28,06,2023,-01,59*6B
20230628T192813737150,$IIDPT,691.04,1.09,*6E
20230628T192813785180,$GPGSV,5,1,18,05,69,245,42,07,32,077,44,11,42,155,44,13,28,192,46*7A
20230628T192814142355,$IIGLL,6157.99398,N,04926.87194,W,,V,N*57
20230628T192814172265,$IIZDA,192749.499,28,06,2023,-01,59*6A
20230628T192814923647,$IIGSA,A,1,05,07,11,13,15,18,20,29,30,49,70,71,0.94,0.54,0.78,*33
20230628T192815228268,$IIZDA,,,,,,*5F
20230628T192815337438,$IIGLL,6157.99398,N,04926.86752,W,,V,N*5A
20230628T192815732307,$IIDPT,688.49,1.09,*6F
20230628T192815778125,$GPGSV,5,1,18,05,69,245,44,07,32,077,45,11,42,155,45,13,28,192,47*7D
20230628T192815927177,$IIGSA,A,1,05,07,11,13,15,18,20,29,30,49,70,71,0.94,0.53,0.78,*34
20230628T192816337458,$IIGLL,6157.99398,N,04926.86368,W,,V,N*57
20230628T192816932865,$IIGSA,A,1,05,07,11,13,15,18,20,29,30,49,70,71,0.94,0.53,0.78,*34
20230628T192817132342,$IIZDA,,,,,,*5F
20230628T192817386612,$IIGLL,6157.99398,N,04926.85926,W,,V,N*54
20230628T192817729457,$IIDPT,685.03,1.09,*6C
20230628T192817777080,$GPGSV,5,1,18,05,69,245,48,07,32,077,47,11,42,155,47,13,28,192,49*7F
20230628T192818177063,$IIZDA,192753.499,28,06,2023,-01,59*61
20230628T192818392736,$IIGLL,6157.99398,N,04926.85562,W,,V,N*58
20230628T192818730971,$IIDPT,685.03,1.09,*6C
20230628T192818780052,$GPGSV,5,1,18,05,69,245,48,07,32,077,47,11,42,155,47,13,28,192,49*7F
20230628T192818928523,$IIGSA,A,1,05,07,11,13,15,18,20,26,29,30,49,71,0.96,0.56,0.79,*31
20230628T192819179734,$IIZDA,192754.499,28,06,2023,-01,59*66
20230628T192819498080,$IIGLL,6157.99398,N,04926.8512,W,,V,N*6A
20230628T192819734777,$IIDPT,680.37,1.09,*6E
20230628T192819780821,$GPGSV,5,1,18,05,69,245,47,07,32,077,49,11,42,155,51,13,28,192,50*71
20230628T192819932423,$IIGSA,A,1,05,07,11,13,15,18,20,26,29,30,49,71,0.96,0.56,0.79,*31
20230628T192820204365,$IIZDA,192755.499,28,06,2023,-01,59*67
20230628T192820513986,$IIGLL,6157.99398,N,04926.84736,W,,V,N*5A
20230628T192821207885,$IIZDA,192756.499,28,06,2023,-01,59*64
20230628T192821543972,$IIGLL,6157.99398,N,04926.84333,W,,V,N*5B
20230628T192821725340,$IIDPT,677.85,1.09,*6F
20230628T192821781099,$GPGSV,5,1,18,05,69,245,40,07,32,077,43,11,42,155,44,13,28,192,43*7A
20230628T192821924282,$IIGSA,A,1,05,07,11,13,15,20,29,30,49,70,71,72,0.95,0.55,0.78,*3F
20230628T192822219066,$IIZDA,192757.499,28,06,2023,-01,59*65
20230628T192822624197,$IIGLL,6157.99398,N,04926.8393,W,,V,N*65
20230628T192822731099,$IIDPT,675.7,1.09,*57
20230628T192822787792,$GPGSV,5,2,18,15,07,219,40,20,74,133,42,29,40,266,40,30,26,111,44*73
20230628T192822927416,$IIGSA,A,1,05,07,11,13,15,20,29,30,49,70,71,72,0.95,0.55,0.78,*3F
20230628T192823232598,$IIZDA,,,,,,*5F
20230628T192823626016,$IIGLL,6157.99398,N,04926.83546,W,,V,N*58
20230628T192823934699,$IIGSA,A,1,05,07,11,13,15,18,20,26,29,30,49,70,0.97,0.56,0.8,*07
20230628T192824717676,$IIGLL,6157.99398,N,04926.83104,W,,V,N*5A
20230628T192824761309,$IIDPT,674.09,1.09,*68
20230628T192824801305,$GPGSV,5,1,18,05,69,245,50,07,32,077,49,11,42,155,49,13,28,192,51*7F
20230628T192825137362,$IIZDA,,,,,,*5F
20230628T192825735871,$IIGLL,6157.99398,N,04926.8272,W,,V,N*6B
20230628T192825789175,$IIDPT,670.05,1.09,*60
20230628T192825813167,$GPGSV,5,1,18,05,69,245,44,07,32,077,45,11,42,155,44,13,28,192,48*73
20230628T192825922865,$IIGSA,A,1,05,07,11,13,15,18,20,29,30,49,70,71,0.94,0.53,0.78,*34
20230628T192826140428,$IIZDA,192801.499,28,06,2023,-01,59*69
20230628T192826755131,$IIGLL,6157.9939,N,04926.82329,W,192802.099,A,D*6D
20230628T192826790868,$IIDPT,670.05,1.09,*60
20230628T192826814891,$GPGSV,5,1,18,05,69,245,44,07,32,077,45,11,42,155,44,13,28,192,48*73
20230628T192826926819,$IIGSA,A,1,05,07,11,13,15,18,20,29,30,49,70,71,0.94,0.53,0.78,*34
20230628T192827153474,$IIZDA,192802.499,28,06,2023,,*4A
20230628T192827758815,$IIGLL,6157.99398,N,04926.81894,W,,V,N*58
20230628T192827934389,$IIGSA,A,1,05,07,11,13,15,18,20,29,30,49,70,71,0.94,0.53,0.78,*34
20230628T192828231140,$IIZDA,,,,,,*5F
20230628T192828761438,$IIGLL,6157.99398,N,04926.8153,W,,V,N*6B
20230628T192828786758,$GPGSV,5,1,18,05,69,245,45,07,32,077,46,11,42,155,49,13,28,192,48*7C
20230628T192828834750,$IIDPT,661.21,1.09,*66
20230628T192829234085,$IIZDA,,,,,,*5F
20230628T192829765109,$IIGLL,6157.99398,N,04926.81146,W,,V,N*5E
20230628T192829788643,$GPGSV,5,2,18,15,07,219,44,18,11,308,43,20,74,133,51,26,09,330,36*77
20230628T192829836652,$IIDPT,661.21,1.09,*66
20230628T192829932695,$IIGSA,A,1,05,07,11,13,15,18,20,26,29,30,49,70,0.96,0.55,0.79,*33
20230628T192830235353,$IIZDA,,,,,,*5F
20230628T192830831208,$IIGLL,6157.99398,N,04926.80704,W,,V,N*5F
20230628T192831332020,$IIZDA,,,,,,*5F
20230628T192831766089,$GPGSV,5,1,18,05,69,245,46,07,32,077,46,11,42,155,46,13,28,192,49*71
20230628T192831836119,$IIDPT,651.46,1.09,*64
20230628T192831868080,$IIGLL,6157.99398,N,04926.80339,W,,V,N*55
20230628T192831932140,$IIGSA,A,1,05,07,11,13,15,18,20,29,30,49,70,71,0.96,0.55,0.79,*31
20230628T192832335599,$IIZDA,,,,,,*5F
20230628T192832836373,$IIDPT,645.61,1.09,*64
20230628T192832934458,$IIGSA,A,1,05,07,11,13,15,18,20,29,30,49,70,71,0.94,0.53,0.78,*34
20230628T192833035266,$IIGLL,6157.99398,N,04926.79917,W,,V,N*55
20230628T192833761115,$GPGSV,5,1,18,05,69,245,46,07,32,077,48,11,42,155,48,13,28,192,50*79
20230628T192833934846,$IIGSA,A,1,05,07,11,13,15,18,20,29,30,49,70,71,0.96,0.55,0.79,*31
20230628T192834037115,$IIGLL,6157.99398,N,04926.79514,W,,V,N*5A
20230628T192834141141,$IIZDA,192809.499,28,06,2023,-01,59*61
20230628T192834763772,$GPGSV,5,1,18,05,69,245,46,07,32,077,48,11,42,155,48,13,28,192,50*79
20230628T192834834258,$IIDPT,642.18,1.09,*6D
20230628T192834935941,$IIGSA,A,1,05,07,11,13,15,18,20,29,30,49,70,71,0.96,0.55,0.79,*31
20230628T192835136329,$IIGLL,6157.99398,N,04926.7911,W,,V,N*6A
20230628T192835164905,$IIZDA,192810.499,28,06,2023,-01,59*69
20230628T192835767392,$GPGSV,5,1,18,05,69,245,48,07,32,077,49,11,42,155,49,13,28,192,51*76
20230628T192835834622,$IIDPT,641.02,1.09,*65
20230628T192836165304,$IIZDA,192811.499,28,06,2023,,*48
20230628T192836300626,$IIGLL,6157.99398,N,04926.7865,W,,V,N*68
20230628T192836771024,$GPGSV,5,2,18,15,07,219,43,18,11,308,44,20,74,133,50,29,40,266,42*75
20230628T192836935077,$IIGSA,A,1,05,07,11,13,15,18,20,29,30,49,70,71,0.96,0.55,0.79,*31
20230628T192837195773,$IIZDA,192812.499,28,06,2023,,*4B
20230628T192837301497,$IIGLL,6157.99398,N,04926.78266,W,,V,N*59
20230628T192837773621,$GPGSV,5,1,18,05,69,245,43,07,32,077,45,11,42,155,45,13,28,192,46*7B
20230628T192837834430,$IIDPT,639.56,1.09,*6B
20230628T192837935356,$IIGSA,A,1,05,07,11,13,15,18,20,29,30,49,70,71,0.96,0.55,0.79,*31
20230628T192838197358,$IIZDA,192813.499,28,06,2023,,*4A
20230628T192838302179,$IIGLL,6157.99398,N,04926.77862,W,,V,N*58
20230628T192838777251,$GPGSV,5,2,18,15,07,219,41,18,11,308,39,20,74,133,45,29,40,266,39*75
20230628T192839200704,$IIZDA,192814.499,28,06,2023,,*4D
20230628T192839312953,$IIGLL,6157.99398,N,04926.77478,W,,V,N*5F
20230628T192839827808,$IIDPT,637.28,1.09,*6C
20230628T192839936191,$IIGSA,A,1,05,07,11,13,15,20,29,30,49,70,71,72,0.96,0.55,0.79,*3D
20230628T192840208514,$IIZDA,192815.499,28,06,2023,,*4C
20230628T192840316674,$IIGLL,6157.99398,N,04926.77094,W,,V,N*59
20230628T192840767051,$GPGSV,5,1,18,05,70,245,42,07,32,077,46,11,42,155,47,13,28,192,48*7D
20230628T192840831079,$IIDPT,635.37,1.09,*60
20230628T192841214242,$IIZDA,192816.499,28,06,2023,,*4F
20230628T192841320562,$IIGLL,6157.99398,N,04926.7671,W,,V,N*63
20230628T192841769229,$GPGSV,5,1,18,05,70,245,47,07,32,077,46,11,42,155,47,13,28,192,50*71
20230628T192841832226,$IIDPT,634.25,1.09,*62
20230628T192841936254,$IIGSA,A,1,05,07,11,13,15,18,20,29,30,49,70,71,0.96,0.55,0.79,*31
20230628T192842224181,$IIZDA,192817.499,28,06,2023,-01,59*6E
20230628T192842330854,$IIGLL,6157.99398,N,04926.76346,W,,V,N*54
20230628T192842776046,$GPGSV,5,2,18,15,07,219,42,18,11,308,41,20,74,133,48,29,39,266,39*7A
20230628T192842930406,$IIDPT,632.92,1.09,*68
20230628T192843332031,$IIZDA,,,,,,*5F
20230628T192843362406,$IIGLL,6157.99398,N,04926.75904,W,,V,N*5B
20230628T192843776938,$GPGSV,5,2,18,15,07,219,39,18,11,308,38,20,74,133,45,29,39,266,37*7B
20230628T192843864940,$IIGSA,A,1,05,07,11,13,15,18,20,29,30,49,70,71,0.96,0.55,0.79,*31
20230628T192843932874,$IIDPT,632.92,1.09,*68
20230628T192844332561,$IIZDA,,,,,,*5F
20230628T192844362449,$IIGLL,6157.99398,N,04926.7552,W,,V,N*61
20230628T192845369866,$IIGLL,6157.99398,N,04926.75117,W,,V,N*51
20230628T192845426787,$IIZDA,,,,,,*5F
20230628T192845767580,$GPGSV,5,1,18,05,70,245,44,07,32,077,46,11,42,155,45,13,28,192,47*76
20230628T192845871952,$IIGSA,A,1,05,07,11,13,15,18,20,29,30,49,70,71,0.96,0.55,0.79,*31
20230628T192845928858,$IIDPT,631.51,1.09,*64
20230628T192846378762,$IIGLL,6157.99398,N,04926.74752,W,,V,N*57
20230628T192846427787,$IIZDA,,,,,,*5F
20230628T192846771134,$GPGSV,5,2,18,15,07,219,39,18,11,308,39,20,74,133,46,29,39,266,40*79
20230628T192846877511,$IIGSA,A,1,05,07,11,13,15,18,20,29,30,49,70,71,0.96,0.55,0.79,*31
20230628T192846929479,$IIDPT,630.4,1.09,*55
20230628T192847381380,$IIGLL,6157.99398,N,04926.74368,W,,V,N*5A
20230628T192847429196,$IIZDA,,,,,,*5F
20230628T192847773929,$GPGSV,5,2,18,15,07,219,44,18,11,308,42,20,74,133,49,29,39,266,43*73
20230628T192847884232,$IIGSA,A,1,05,07,11,13,15,18,20,29,30,49,70,71,0.96,0.55,0.79,*31
20230628T192847932514,$IIDPT,630.11,1.09,*61
20230628T192848384004,$IIGLL,6157.99398,N,04926.73984,W,,V,N*55
20230628T192848434468,$IIZDA,,,,,,*5F
20230628T192848885798,$IIGSA,A,1,05,07,11,13,15,18,20,29,30,49,70,71,0.94,0.53,0.78,*34
20230628T192849387594,$IIGLL,6157.99398,N,04926.736,W,,V,N*56
20230628T192849769249,$GPGSV,5,1,18,05,70,245,48,07,32,077,50,11,42,155,50,13,28,192,52*7D
20230628T192849928366,$IIDPT,629.24,1.09,*6F
20230628T192850227255,$IIZDA,192825.499,28,06,2023,-01,59*6F
20230628T192850391397,$IIGLL,6157.99398,N,04926.73197,W,,V,N*5F
20230628T192850893068,$IIGSA,A,1,05,07,11,13,15,16,18,20,29,30,49,71,0.94,0.53,0.78,*34
20230628T192851334277,$IIZDA,,,,,,*5F
20230628T192851402774,$IIGLL,6157.99398,N,04926.72813,W,,V,N*5B
20230628T192851765196,$GPGSV,5,1,18,05,70,245,45,07,32,077,46,11,42,155,48,13,28,192,50*7C
20230628T192851902923,$IIGSA,A,1,05,07,11,13,15,18,20,29,30,49,70,71,0.94,0.53,0.78,*34
20230628T192851941602,$IIDPT,625.38,1.09,*6E
20230628T192852428611,$IIZDA,,,,,,*5F
20230628T192852532636,$IIGLL,6157.99398,N,04926.7241,W,,V,N*64
20230628T192852767840,$GPGSV,5,1,18,05,70,245,45,07,32,077,46,11,42,155,48,13,28,192,50*7C
20230628T192852909116,$IIGSA,A,1,05,07,11,13,15,18,20,29,30,49,70,71,0.94,0.53,0.78,*34
20230628T192853604181,$IIGLL,6157.99398,N,04926.71968,W,,V,N*55
20230628T192853772667,$GPGSV,5,2,18,15,07,219,39,18,11,308,39,20,74,133,47,29,39,266,39*76
20230628T192853931007,$IIDPT,623.63,1.09,*66
20230628T192854224172,$IIZDA,192829.499,28,06,2023,-01,59*63
20230628T192854716277,$IIGLL,6157.99398,N,04926.71526,W,,V,N*53
20230628T192854906999,$IIGSA,A,1,05,07,11,13,15,18,20,29,30,49,70,71,0.96,0.55,0.79,*31
20230628T192854934131,$IIDPT,623.63,1.09,*66
20230628T192855233622,$IIZDA,192830.499,28,06,2023,-01,59*6B
20230628T192855719862,$IIGLL,6157.99398,N,04926.71162,W,,V,N*57
20230628T192855772504,$GPGSV,5,1,18,05,70,245,42,07,32,077,44,11,42,155,45,13,28,192,47*72
20230628T192855908056,$IIGSA,A,1,05,07,11,13,15,18,20,29,30,49,70,71,0.96,0.55,0.79,*31
20230628T192855943249,$IIDPT,621.55,1.09,*61
20230628T192856237304,$IIZDA,192831.499,28,06,2023,,*4A
20230628T192856723572,$IIGLL,6157.99398,N,04926.70778,W,,V,N*5B
20230628T192856782914,$GPGSV,5,1,18,05,70,245,42,07,32,077,44,11,42,155,45,13,28,192,47*72
20230628T192856922852,$IIGSA,A,1,05,07,11,13,15,18,20,29,30,49,70,71,0.96,0.55,0.79,*31
20230628T192856955199,$IIDPT,619.33,1.09,*6A
20230628T192857319276,$IIZDA,,,,,,*5F
20230628T192857723725,$IIGLL,6157.99398,N,04926.70394,W,,V,N*5D
20230628T192857923690,$IIGSA,A,1,05,07,11,13,15,18,20,29,30,49,70,71,0.96,0.55,0.79,*31
20230628T192858033115,$IIDPT,617.68,1.09,*6A
20230628T192858431035,$IIZDA,,,,,,*5F
20230628T192858745690,$IIGLL,6157.9939,N,04926.69959,W,192834.099,A,D*60
20230628T192858773901,$GPGSV,5,1,18,05,70,245,43,07,32,077,45,11,42,155,45,13,28,192,48*7D
20230628T192859528401,$IIZDA,,,,,,*5F
20230628T192859751856,$IIGLL,6157.9939,N,04926.69568,W,192835.099,A,D*6F
20230628T192859781820,$GPGSV,5,2,18,15,07,219,39,18,11,308,40,20,74,133,47,29,39,266,38*79
20230628T192859920924,$IIGSA,A,1,05,07,11,13,15,18,20,29,30,49,70,71,0.96,0.55,0.79,*31
20230628T192900033104,$IIDPT,617.21,1.09,*67
20230628T192900532117,$IIZDA,,,,,,*5F
20230628T192900829780,$IIGLL,6157.99398,N,04926.69146,W,,V,N*58
20230628T192900927294,$IIGSA,A,1,05,07,11,13,15,18,20,29,30,49,70,71,0.94,0.53,0.78,*34
20230628T192901768984,$GPGSV,5,1,18,05,70,245,42,07,32,077,46,11,42,155,46,13,28,192,48*7C
20230628T192901837455,$IIGLL,6157.99398,N,04926.68762,W,,V,N*59
20230628T192901928089,$IIGSA,A,1,05,07,11,13,16,18,20,29,30,49,70,71,0.96,0.55,0.79,*32
20230628T192902028131,$IIDPT,616.02,1.09,*67
20230628T192902137242,$IIZDA,192837.499,28,06,2023,-01,59*6C
20230628T192902772697,$GPGSV,5,2,18,16,13,360,38,18,11,308,40,20,74,133,45,29,39,266,39*72
20230628T192902966053,$IIGLL,6157.99398,N,04926.6832,W,,V,N*6B
20230628T192903032693,$IIDPT,614.88,1.09,*67
20230628T192903144531,$IIZDA,192838.499,28,06,2023,-01,59*63
20230628T192903775263,$GPGSV,5,2,18,15,07,219,38,16,13,360,38,20,74,133,46,29,39,266,40*7B
20230628T192903918533,$IIGSA,A,1,05,07,11,13,15,16,20,29,30,49,70,71,0.94,0.53,0.78,*3A
20230628T192903969859,$IIGLL,6157.99398,N,04926.67936,W,,V,N*59
20230628T192904033820,$IIDPT,614.08,1.09,*6F
20230628T192904232510,$IIZDA,192839.499,28,06,2023,,*42
20230628T192904919523,$IIGSA,A,1,05,07,11,13,15,16,20,29,30,49,70,71,0.94,0.53,0.78,*3A
20230628T192904979017,$IIGLL,6157.99398,N,04926.67552,W,,V,N*57
20230628T192905034983,$IIDPT,614.08,1.09,*6F
20230628T192905233667,$IIZDA,192840.499,28,06,2023,,*4C
20230628T192905766922,$GPGSV,5,1,18,05,70,245,45,07,32,077,48,11,42,155,49,13,29,192,50*72
20230628T192905933151,$IIGSA,A,1,05,07,11,13,15,16,18,20,29,30,49,71,0.94,0.53,0.78,*34
20230628T192905985346,$IIGLL,6157.99398,N,04926.67168,W,,V,N*5A
20230628T192906423708,$IIZDA,,,,,,*5F
20230628T192906769433,$GPGSV,5,2,18,15,07,219,41,16,13,360,39,18,11,308,41,20,74,133,48*7A
20230628T192907032820,$IIDPT,613.42,1.09,*66
20230628T192907121137,$IIGLL,6157.99398,N,04926.66726,W,,V,N*57
20230628T192907427779,$IIZDA,,,,,,*5F
20230628T192907770732,$GPGSV,5,2,18,15,07,219,41,16,13,360,41,18,11,308,41,20,74,133,46*7B
20230628T192907932196,$IIGSA,A,1,05,07,11,13,15,16,18,20,29,30,49,71,0.96,0.55,0.79,*31
20230628T192908124274,$IIGLL,6157.99398,N,04926.66342,W,,V,N*51
20230628T192908431283,$IIZDA,,,,,,*5F
20230628T192909031897,$IIDPT,610.87,1.09,*6C
20230628T192909135795,$IIGLL,6157.99398,N,04926.6592,W,,V,N*6C
20230628T192909433859,$IIZDA,,,,,,*5F
20230628T192909768706,$GPGSV,5,1,18,05,70,245,47,07,32,077,47,11,42,155,47,13,29,192,50*71
20230628T192909934699,$IIGSA,A,1,05,07,11,13,15,18,20,29,30,49,70,71,0.94,0.53,0.78,*34
20230628T192910033092,$IIDPT,610.87,1.09,*6C
20230628T192910321670,$IIGLL,6157.99398,N,04926.65498,W,,V,N*52
20230628T192910531280,$IIZDA,,,,,,*5F
20230628T192910774816,$GPGSV,5,2,18,15,07,219,39,18,11,308,43,20,74,133,48,29,39,266,40*7A
20230628T192911034330,$IIDPT,609.44,1.09,*6B
20230628T192911326073,$IIGLL,6157.99398,N,04926.65094,W,,V,N*5A
20230628T192911925481,$IIGSA,A,1,05,07,11,13,15,18,20,29,30,49,70,71,0.96,0.55,0.79,*31
20230628T192912139159,$IIZDA,192847.499,28,06,2023,-01,59*6B
20230628T192912331805,$IIGLL,6157.99398,N,04926.6471,W,,V,N*60
20230628T192912756276,$GPGSV,5,1,18,05,70,245,43,07,32,077,45,11,42,155,45,13,29,192,48*7C
20230628T192912932767,$IIGSA,A,1,05,07,11,13,15,18,20,29,30,49,70,71,0.94,0.53,0.78,*34
20230628T192913033302,$IIDPT,603.52,1.09,*66
20230628T192913226874,$IIZDA,192848.499,28,06,2023,,*44
20230628T192913417096,$IIGLL,6157.99398,N,04926.64269,W,,V,N*5B
20230628T192913759897,$GPGSV,5,1,18,05,70,245,44,07,32,077,48,11,42,155,50,13,29,192,50*7B
20230628T192914229432,$IIZDA,192849.499,28,06,2023,,*45
20230628T192914427564,$IIGLL,6157.99398,N,04926.63885,W,,V,N*54
20230628T192914762425,$GPGSV,5,1,18,05,70,245,44,07,32,077,48,11,42,155,50,13,29,192,50*7B
20230628T192914928728,$IIGSA,A,1,05,07,11,13,15,16,18,20,29,30,49,71,0.94,0.53,0.78,*34
20230628T192915040739,$IIDPT,599.55,1.09,*61
20230628T192915231302,$IIZDA,192850.499,28,06,2023,-01,59*6D
20230628T192915442047,$IIGLL,6157.99398,N,04926.63443,W,,V,N*52
20230628T192915765747,$GPGSV,5,1,18,05,70,245,46,07,32,077,49,11,42,155,49,13,29,192,49*78
20230628T192916131132,$IIDPT,588.38,1.09,*6A
20230628T192916232747,$IIZDA,192851.499,28,06,2023,,*4C
20230628T192916535186,$IIGLL,6157.99398,N,04926.63021,W,,V,N*52
20230628T192916773346,$GPGSV,5,2,18,15,07,219,38,16,13,360,42,20,74,132,49,29,39,266,44*7C
20230628T192916851486,$IIGSA,A,1,05,07,11,13,15,16,20,29,30,49,71,72,0.94,0.53,0.78,*38
20230628T192917520584,$IIZDA,,,,,,*5F
20230628T192917552297,$IIGLL,6157.99398,N,04926.62637,W,,V,N*52
20230628T192918122404,$IIDPT,578.94,1.09,*63
20230628T192918524203,$IIZDA,,,,,,*5F
20230628T192918560211,$IIGLL,6157.99398,N,04926.62214,W,,V,N*57
20230628T192918757820,$GPGSV,5,1,18,05,70,245,45,07,32,077,46,11,42,155,47,13,29,192,49*7A
20230628T192918864213,$IIGSA,A,1,05,07,11,13,15,20,26,29,30,49,71,72,0.94,0.53,0.78,*3B
20230628T192919128700,$IIDPT,571.76,1.09,*66
20230628T192919527797,$IIZDA,,,,,,*5F
20230628T192919568201,$IIGLL,6157.99398,N,04926.6183,W,,V,N*68
20230628T192919766233,$GPGSV,5,1,18,05,70,245,38,07,32,077,43,11,42,155,44,13,29,192,45*7A
20230628T192920530404,$IIZDA,,,,,,*5F
20230628T192920571482,$IIGLL,6157.99398,N,04926.61446,W,,V,N*55
20230628T192920774077,$GPGSV,5,2,18,16,13,360,35,20,74,132,43,29,39,266,41,30,26,110,42*70
20230628T192920869189,$IIGSA,A,1,05,07,11,13,16,20,29,30,49,70,71,72,1.02,0.57,0.85,*33
20230628T192921129702,$IIDPT,566.23,1.09,*60
20230628T192921531539,$IIZDA,,,,,,*5F
20230628T192921645105,$IIGLL,6157.99398,N,04926.61005,W,,V,N*56
20230628T192921871420,$IIGSA,A,1,05,07,11,13,16,18,20,29,30,49,71,72,0.94,0.53,0.78,*35
20230628T192922631878,$IIZDA,,,,,,*5F
20230628T192922655946,$IIGLL,6157.99398,N,04926.60621,W,,V,N*57
20230628T192922767714,$GPGSV,5,1,18,05,70,245,43,07,32,077,44,11,42,155,46,13,29,192,48*7E
20230628T192922877734,$IIGSA,A,1,05,07,11,13,16,18,20,29,30,49,71,72,0.94,0.53,0.78,*35
20230628T192923130992,$IIDPT,564.09,1.09,*6A
20230628T192923744424,$IIGLL,6157.99431,N,04926.60208,W,192859.099,A,D*51
20230628T192923778052,$GPGSV,5,1,18,05,70,245,41,07,32,077,43,11,42,155,44,13,29,192,47*76
20230628T192924228944,$IIZDA,192859.499,28,06,2023,-01,59*64
20230628T192924756085,$IIGLL,6157.99398,N,04926.59814,W,,V,N*55
20230628T192924796079,$GPGSV,5,1,18,05,70,245,41,07,32,077,43,11,42,155,44,13,29,192,47*76
20230628T192924894505,$IIGSA,A,1,05,07,11,13,16,18,20,29,30,49,71,72,0.94,0.53,0.78,*35
20230628T192925118301,$IIDPT,565.79,1.09,*6C
20230628T192925529098,$IIZDA,,,,,,*5F
20230628T192925831851,$IIGLL,6157.99437,N,04926.59373,W,,V,N*5D
20230628T192925900728,$IIGSA,A,1,05,07,11,13,16,18,20,29,30,49,71,72,0.94,0.53,0.78,*35
20230628T192926626429,$IIZDA,,,,,,*5F
20230628T192926758247,$GPGSV,5,1,18,05,70,245,43,07,32,077,44,11,42,155,46,13,29,192,49*7F
20230628T192926835177,$IIGLL,6157.99437,N,04926.58989,W,,V,N*53
20230628T192926900934,$IIGSA,A,1,05,07,11,13,16,18,20,29,30,49,71,72,0.94,0.53,0.78,*35
20230628T192927132913,$IIDPT,569.71,1.09,*68
20230628T192927630072,$IIZDA,,,,,,*5F
20230628T192927835927,$IIGLL,6157.99437,N,04926.58605,W,,V,N*58
20230628T192927908619,$IIGSA,A,1,05,07,11,13,20,26,29,30,49,70,71,72,0.94,0.53,0.78,*38
20230628T192928757676,$GPGSV,5,1,18,05,70,245,42,07,32,077,42,11,42,155,42,13,29,192,47*72
20230628T192929032706,$IIGLL,6157.99437,N,04926.58163,W,,V,N*5F
20230628T192929128762,$IIDPT,570.53,1.09,*60
20230628T192929158700,$IIZDA,192904.499,28,06,2023,-01,59*6D
20230628T192929762324,$GPGSV,5,1,18,05,70,245,43,07,32,077,45,11,42,155,43,13,29,192,48*7A
20230628T192929906946,$IIGSA,A,1,05,07,11,13,16,20,26,29,30,49,71,72,0.94,0.53,0.78,*38
20230628T192930114209,$IIGLL,6157.99437,N,04926.5776,W,,V,N*65
20230628T192930141425,$IIDPT,569.71,1.09,*68
20230628T192930172676,$IIZDA,192905.499,28,06,2023,-01,59*6C
20230628T192930767184,$GPGSV,5,1,18,05,70,245,43,07,32,077,45,11,42,155,43,13,29,192,48*7A
20230628T192930922563,$IIGSA,A,1,05,07,11,13,16,20,26,29,30,49,71,72,0.94,0.53,0.78,*38
20230628T192931124346,$IIGLL,6157.99437,N,04926.57357,W,,V,N*55
20230628T192931148342,$IIDPT,569.71,1.09,*68
20230628T192931188370,$IIZDA,192906.499,28,06,2023,-01,59*6F
20230628T192931767539,$GPGSV,5,2,18,16,13,360,41,18,11,308,39,20,74,132,47,29,39,266,44*7B
20230628T192932128683,$IIGLL,6157.99437,N,04926.56954,W,,V,N*5D
20230628T192932156779,$IIDPT,567.13,1.09,*62
20230628T192932188741,$IIZDA,192907.499,28,06,2023,-01,59*6E
20230628T192932771236,$GPGSV,5,2,18,16,13,360,41,18,11,308,39,20,74,132,47,29,39,266,44*7B
20230628T192932919969,$IIGSA,A,1,05,07,11,13,16,18,20,29,30,49,71,72,0.94,0.53,0.78,*35
20230628T192933143691,$IIGLL,6157.99437,N,04926.56531,W,,V,N*52
20230628T192933230707,$IIZDA,192908.499,28,06,2023,-01,59*61
20230628T192934223742,$IIDPT,556.56,1.09,*61
20230628T192934332676,$IIGLL,6157.99437,N,04926.56109,W,,V,N*5D
20230628T192934631438,$IIZDA,,,,,,*5F
20230628T192934756323,$GPGSV,5,1,18,05,70,244,45,07,32,076,45,11,42,155,46,13,29,192,48*79
20230628T192934843121,$IIGSA,A,1,05,07,11,13,16,18,20,29,30,49,70,71,0.94,0.53,0.78,*37
20230628T192935231111,$IIDPT,553.52,1.09,*60
20230628T192935420875,$IIGLL,6157.99437,N,04926.55667,W,,V,N*51
20230628T192935712875,$IIZDA,,,,,,*5F
20230628T192935780174,$GPGSV,5,1,18,05,70,244,43,07,32,076,44,09,15,051,39,11,42,155,45*71
20230628T192935844133,$IIGSA,A,1,05,07,09,11,13,16,20,29,30,49,70,71,0.94,0.53,0.78,*37
20230628T192936427700,$IIGLL,6157.99437,N,04926.55283,W,,V,N*5F
20230628T192936717482,$IIZDA,,,,,,*5F
20230628T192936782184,$GPGSV,5,2,18,13,29,192,47,16,13,360,38,20,74,132,46,29,39,266,42*7A
20230628T192936856617,$IIGSA,A,1,05,07,09,11,13,16,20,29,30,49,70,71,0.94,0.53,0.78,*37
20230628T192937231997,$IIDPT,546.8,1.09,*5B
20230628T192937519939,$IIGLL,6157.99437,N,04926.54842,W,,V,N*59
20230628T192937719436,$IIZDA,,,,,,*5F
20230628T192937784236,$GPGSV,5,2,18,13,29,192,49,20,74,132,46,29,39,266,44,30,26,110,43*79
20230628T192938554738,$IIGLL,6157.99475,N,04926.54419,W,,V,N*5D
20230628T192938725707,$IIZDA,,,,,,*5F
20230628T192938855808,$IIGSA,A,1,05,07,09,11,13,20,29,30,49,70,71,72,0.94,0.53,0.78,*35
20230628T192939230996,$IIDPT,537.81,1.09,*6C
20230628T192939574521,$IIGLL,6157.99475,N,04926.54016,W,,V,N*56
20230628T192939764296,$GPGSV,5,1,18,05,70,244,45,07,32,076,45,11,42,155,46,13,29,192,50*70
20230628T192939869234,$IIGSA,A,1,05,07,11,13,16,18,20,29,30,49,71,72,0.94,0.53,0.78,*35
20230628T192940136453,$IIZDA,192915.499,28,06,2023,-01,59*6D
20230628T192940232482,$IIDPT,530.61,1.09,*65
20230628T192940670343,$IIGLL,6157.99514,N,04926.53594,W,,V,N*58
20230628T192940766864,$GPGSV,5,1,18,05,70,244,45,07,32,076,45,11,42,155,46,13,29,192,50*70
20230628T192940875185,$IIGSA,A,1,05,07,11,13,16,18,20,29,30,49,71,72,0.94,0.53,0.78,*35
20230628T192941139842,$IIZDA,192916.499,28,06,2023,-01,59*6E
20230628T192941689544,$IIGLL,6157.99514,N,04926.5319,W,,V,N*68
20230628T192941767640,$GPGSV,5,1,18,05,70,244,46,07,32,076,48,09,15,051,45,11,42,155,48*7E
20230628T192941890652,$IIGSA,A,1,05,07,09,11,13,16,18,20,29,30,49,71,0.94,0.53,0.78,*39
20230628T192942186514,$IIZDA,192917.499,28,06,2023,,*4F
20230628T192942229637,$IIDPT,527.95,1.09,*68
20230628T192942694176,$IIGLL,6157.99514,N,04926.52806,W,,V,N*5F
20230628T192943616974,$IIZDA,,,,,,*5F
20230628T192943696647,$IIGLL,6157.99514,N,04926.52422,W,,V,N*55
20230628T192943767156,$GPGSV,5,1,18,05,70,244,40,07,32,076,44,09,15,051,39,11,42,155,41*76
20230628T192943884568,$IIGSA,A,1,05,07,09,11,13,20,29,30,49,70,71,72,0.94,0.53,0.78,*35
20230628T192944218021,$IIDPT,510.77,1.09,*60
20230628T192944619335,$IIZDA,,,,,,*5F
20230628T192944700483,$IIGLL,6157.99514,N,04926.52058,W,,V,N*5C
20230628T192944899988,$IIGSA,A,1,05,07,09,11,13,20,29,30,49,70,71,72,0.94,0.53,0.78,*35
20230628T192945226713,$IIDPT,510.77,1.09,*60
20230628T192945623251,$IIZDA,,,,,,*5F
20230628T192945708220,$IIGLL,6157.99514,N,04926.51674,W,,V,N*57
20230628T192945764213,$GPGSV,5,1,18,05,70,244,45,07,32,076,45,11,42,155,47,13,29,192,49*79
20230628T192946625876,$IIZDA,,,,,,*5F
20230628T192946710630,$IIGLL,6157.99514,N,04926.5127,W,,V,N*67
20230628T192946765748,$GPGSV,5,2,18,15,07,219,38,20,73,132,48,26,08,329,38,29,39,266,39*79
20230628T192946901281,$IIGSA,A,1,05,07,11,13,15,20,26,29,30,49,71,72,0.94,0.53,0.78,*3B
20230628T192947226233,$IIDPT,502.98,1.09,*62
20230628T192947629435,$IIZDA,,,,,,*5F
20230628T192947714740,$IIGLL,6157.99514,N,04926.50886,W,,V,N*55
20230628T192947772182,$GPGSV,5,2,18,15,07,219,39,18,11,308,40,20,73,132,48,29,39,266,44*7B
20230628T192947913350,$IIGSA,A,1,05,07,11,13,15,18,20,29,30,49,71,72,0.94,0.53,0.78,*36
20230628T192948726796,$IIGLL,6157.99514,N,04926.50502,W,,V,N*54
20230628T192948748723,$IIZDA,,,,,,*5F
20230628T192948788684,$GPGSV,5,1,18,05,70,244,45,07,32,076,49,11,42,155,49,13,29,192,50*73
20230628T192948916157,$IIGSA,A,1,05,07,11,13,15,18,20,29,30,49,71,72,0.94,0.53,0.78,*36
20230628T192949228631,$IIDPT,499.16,1.09,*67
20230628T192949729492,$IIGLL,6157.99514,N,04926.50099,W,,V,N*53
20230628T192949754259,$IIZDA,,,,,,*5F
20230628T192949794284,$GPGSV,5,1,18,05,70,244,39,07,32,076,46,11,41,155,46,13,29,192,46*7C
20230628T192949930923,$IIGSA,A,1,05,07,11,13,16,20,29,30,49,70,71,72,0.94,0.53,0.78,*3B
20230628T192950325082,$IIDPT,499.16,1.09,*67
20230628T192950748622,$IIGLL,6157.99513,N,04926.49673,W,192926.1,A,D*5B
20230628T192950765268,$IIZDA,,,,,,*5F
20230628T192950797832,$GPGSV,5,1,18,05,70,244,39,07,32,076,46,11,41,155,46,13,29,192,46*7C
20230628T192951328402,$IIDPT,494.68,1.09,*63
20230628T192951829415,$IIGLL,6157.99552,N,04926.49254,W,,V,N*5A
20230628T192951932304,$IIGSA,A,1,05,07,09,11,13,20,26,29,30,49,71,72,0.95,0.53,0.79,*36
20230628T192952228888,$IIZDA,192927.5,28,06,2023,-01,59*6D
20230628T192952754089,$GPGSV,5,1,18,05,70,244,39,07,32,076,41,09,15,051,36,11,41,155,40*70
20230628T192952834090,$IIGLL,6157.99552,N,04926.4887,W,,V,N*67
20230628T192953320222,$IIDPT,491.51,1.09,*6C
20230628T192953727638,$IIZDA,,,,,,*5F
20230628T192953776153,$GPGSV,5,1,18,05,70,244,44,07,32,076,47,09,15,051,44,11,41,155,48*71
20230628T192953840146,$IIGLL,6157.99552,N,04926.48486,W,,V,N*52
20230628T192953928253,$IIGSA,A,1,05,07,09,11,13,18,20,29,30,49,71,72,0.95,0.53,0.79,*3B
20230628T192954728185,$IIZDA,,,,,,*5F
20230628T192954776214,$GPGSV,5,1,18,05,70,244,44,07,32,076,47,09,15,051,44,11,41,155,48*71
20230628T192954840242,$IIGLL,6157.99552,N,04926.48102,W,,V,N*5B
20230628T192954929609,$IIGSA,A,1,05,07,09,11,13,18,20,29,30,49,71,72,0.95,0.53,0.79,*3B
20230628T192955321605,$IIDPT,487.72,1.09,*6A
20230628T192955795255,$IIZDA,,,,,,*5F
20230628T192955965362,$IIGLL,6157.99552,N,04926.47661,W,,V,N*56
20230628T192956323804,$IIDPT,487.72,1.09,*6A
20230628T192956750997,$GPGSV,5,1,18,05,70,244,41,07,32,076,44,09,15,051,40,11,41,155,44*7F
20230628T192956809557,$IIZDA,,,,,,*5F
20230628T192956927602,$IIGSA,A,1,05,07,09,11,13,16,20,29,30,49,71,72,0.95,0.53,0.79,*35
20230628T192956976348,$IIGLL,6157.99552,N,04926.47277,W,,V,N*55
20230628T192957754676,$GPGSV,5,1,18,05,70,244,45,07,32,076,48,09,14,051,42,11,41,155,46*76
20230628T192957816913,$IIZDA,,,,,,*5F
20230628T192958081283,$IIGLL,6157.99552,N,04926.46854,W,,V,N*5F
20230628T192958319029,$IIDPT,481.09,1.09,*60
20230628T192958757210,$GPGSV,5,1,18,05,70,244,45,07,32,076,48,09,14,051,42,11,41,155,46*76
20230628T192958825111,$IIZDA,,,,,,*5F
20230628T192958932409,$IIGSA,A,1,05,07,09,11,13,20,26,29,30,49,71,72,0.95,0.53,0.79,*36
20230628T192959084596,$IIGLL,6157.99552,N,04926.4647,W,,V,N*65
20230628T192959321587,$IIDPT,478.73,1.09,*6B
20230628T192959759709,$GPGSV,5,1,18,05,70,244,42,07,32,076,45,11,41,155,44,13,29,192,47*70
20230628T193000088580,$IIGLL,6157.99552,N,04926.46086,W,,V,N*58
20230628T193000224935,$IIZDA,192935.5,28,06,2023,-01,59*6E
20230628T193000326863,$IIDPT,476.48,1.09,*6D
20230628T193000759915,$GPGSV,5,1,18,05,70,244,42,07,32,076,45,11,41,155,44,13,29,192,47*70
20230628T193000841419,$IIGSA,A,1,05,07,11,13,15,16,20,29,30,49,71,72,0.95,0.53,0.79,*38
20230628T193001096010,$IIGLL,6157.99552,N,04926.45683,W,,V,N*58
20230628T193001231858,$IIZDA,192936.5,28,06,2023,,*4D
20230628T193001766265,$GPGSV,5,2,18,15,07,219,41,16,13,360,39,18,11,308,40,20,73,132,47*72
20230628T193001842385,$IIGSA,A,1,05,07,11,13,15,16,18,20,29,30,49,71,0.95,0.53,0.79,*34
20230628T193002099049,$IIGLL,6157.99552,N,04926.45299,W,,V,N*57
20230628T193002320641,$IIDPT,474.61,1.09,*64
20230628T193002722864,$IIZDA,,,,,,*5F
20230628T193002774262,$GPGSV,5,1,18,05,70,244,44,07,32,076,49,11,41,155,49,13,29,192,49*79
20230628T193003107128,$IIGLL,6157.99552,N,04926.44934,W,,V,N*5A
20230628T193003725731,$IIZDA,,,,,,*5F
20230628T193003840895,$IIGSA,A,1,05,07,11,13,15,18,20,29,30,49,71,72,0.95,0.53,0.79,*36
20230628T193004130087,$IIGLL,6157.99552,N,04926.44493,W,,V,N*5A
20230628T193004324286,$IIDPT,474.53,1.09,*65
20230628T193004728367,$IIZDA,,,,,,*5F
20230628T193004766524,$GPGSV,5,1,18,05,70,244,45,07,32,076,48,11,41,155,48,13,29,192,50*70
20230628T193004846530,$IIGSA,A,1,05,07,11,13,15,18,20,29,30,49,71,72,0.95,0.53,0.79,*36
20230628T193005300711,$IIGLL,6157.99552,N,04926.4407,W,,V,N*63
20230628T193005332463,$IIDPT,472.99,1.09,*65
20230628T193005825570,$IIZDA,,,,,,*5F
20230628T193005858240,$IIGSA,A,1,05,07,09,11,13,15,16,20,29,30,49,71,0.95,0.53,0.79,*34
20230628T193006311815,$IIGLL,6157.99552,N,04926.43667,W,,V,N*54
20230628T193006336593,$IIDPT,472.99,1.09,*65
20230628T193006750196,$GPGSV,5,1,18,05,70,244,43,07,32,076,46,09,14,051,42,11,41,155,46*7E
20230628T193007139436,$IIZDA,192942.5,28,06,2023,-01,59*6E
20230628T193007319162,$IIGLL,6157.99552,N,04926.43283,W,,V,N*5A
20230628T193007344545,$IIDPT,471.43,1.09,*61
20230628T193007753804,$GPGSV,5,1,18,05,70,244,40,07,32,076,46,09,14,051,40,11,41,155,45*7C
20230628T193007856820,$IIGSA,A,1,05,07,09,11,13,20,29,30,49,70,71,72,0.95,0.53,0.79,*35
20230628T193008222755,$IIZDA,192943.5,28,06,2023,-01,59*6F
20230628T193008320781,$IIGLL,6157.9959,N,04926.42899,W,,V,N*64
20230628T193008348021,$IIDPT,469.75,1.09,*6D
20230628T193008758439,$GPGSV,5,1,18,05,70,244,40,07,32,076,46,09,14,051,40,11,41,155,45*7C
20230628T193008862461,$IIGSA,A,1,05,07,09,11,13,20,29,30,49,70,71,72,0.95,0.53,0.79,*35
20230628T193009336400,$IIGLL,6157.9959,N,04926.42458,W,,V,N*65
20230628T193009430447,$IIDPT,467.7,1.09,*56
20230628T193009747085,$IIZDA,,,,,,*5F
20230628T193009778367,$GPGSV,5,1,18,05,70,244,44,07,32,076,47,09,14,051,41,11,41,155,48*75
20230628T193010343015,$IIGLL,6157.9959,N,04926.42074,W,,V,N*6F
20230628T193010751983,$IIZDA,,,,,,*5F
20230628T193010786095,$GPGSV,5,2,18,13,29,192,50,18,11,308,43,20,73,132,50,26,08,329,40*77
20230628T193010842079,$IIGSA,A,1,05,07,09,11,13,18,20,26,29,30,49,71,0.95,0.53,0.79,*3A
20230628T193011421756,$IIDPT,463.98,1.09,*64
20230628T193011526539,$IIGLL,6157.9959,N,04926.4167,W,,V,N*5E
20230628T193011872917,$IIZDA,,,,,,*5F
20230628T193012627528,$IIGLL,6157.99629,N,04926.41229,W,,V,N*57
20230628T193012760338,$GPGSV,5,1,18,05,70,244,42,07,32,076,47,09,14,051,42,11,41,155,44*7C
20230628T193012850032,$IIGSA,A,1,05,07,09,11,13,18,20,29,30,49,71,72,0.95,0.53,0.79,*3B
20230628T193012873966,$IIZDA,,,,,,*5F
20230628T193013423207,$IIDPT,461.83,1.09,*6C
20230628T193013724872,$IIGLL,6157.99629,N,04926.40787,W,,V,N*57
20230628T193013774445,$GPGSV,5,1,18,05,70,244,44,07,32,076,50,09,14,051,44,11,41,155,50*7F
20230628T193013862501,$IIGSA,A,1,05,07,09,11,13,18,20,26,29,30,49,71,0.95,0.53,0.79,*3A
20230628T193013878432,$IIZDA,,,,,,*5F
20230628T193014728483,$IIGLL,6157.99629,N,04926.40403,W,,V,N*58
20230628T193014774593,$GPGSV,5,1,18,05,70,244,44,07,32,076,50,09,14,051,44,11,41,155,50*7F
20230628T193014867712,$IIGSA,A,1,05,07,09,11,13,18,20,26,29,30,49,71,0.95,0.53,0.79,*3A
20230628T193014883712,$IIZDA,,,,,,*5F
20230628T193015416909,$IIDPT,456.55,1.09,*63
20230628T193015746688,$IIGLL,6157.99637,N,04926.40005,W,192951.1,A,D*50
20230628T193015777959,$GPGSV,5,2,18,15,07,219,36,20,73,132,43,29,39,265,38,30,26,110,42*70
20230628T193015874044,$IIGSA,A,1,05,07,11,13,15,20,29,30,49,70,71,72,0.95,0.53,0.79,*38
20230628T193015894103,$IIZDA,,,,,,*5F
20230628T193016420456,$IIDPT,455.33,1.09,*60
20230628T193016750423,$IIGLL,6157.99629,N,04926.39597,W,,V,N*5A
20230628T193016780913,$GPGSV,5,1,18,05,70,244,39,07,32,076,43,11,41,155,41,13,29,192,44*7C
20230628T193017134306,$IIZDA,192952.5,28,06,2023,-01,59*6F
20230628T193017423091,$IIDPT,455.33,1.09,*60
20230628T193017757433,$IIGLL,6157.99629,N,04926.39213,W,,V,N*51
20230628T193017781501,$GPGSV,5,1,18,05,70,244,44,07,32,076,46,11,41,155,45,13,29,192,48*7B
20230628T193017885283,$IIGSA,A,1,05,07,11,13,15,16,18,20,29,30,49,71,0.95,0.53,0.79,*34
20230628T193018180567,$IIZDA,192953.5,28,06,2023,,*4E
20230628T193018427665,$IIDPT,453.92,1.09,*6D
20230628T193018834691,$IIGLL,6157.99629,N,04926.3881,W,,V,N*69
20230628T193019188244,$IIZDA,192954.5,28,06,2023,,*49
20230628T193019758412,$GPGSV,5,1,18,05,70,244,44,07,32,076,49,11,41,155,50,13,29,192,51*78
20230628T193019894791,$IIGSA,A,1,05,07,11,13,15,16,18,20,29,30,49,71,0.95,0.53,0.79,*34
20230628T193020021234,$IIGLL,6157.99629,N,04926.38368,W,,V,N*5D
20230628T193020198976,$IIZDA,192955.5,28,06,2023,,*48
20230628T193020417210,$IIDPT,451.93,1.09,*6E
20230628T193021031592,$IIGLL,6157.99629,N,04926.37984,W,,V,N*5A
20230628T193021417462,$IIDPT,451.93,1.09,*6E
20230628T193021754453,$GPGSV,5,1,18,05,70,244,42,07,32,076,48,11,41,155,48,13,29,192,50*77
20230628T193021823353,$IIZDA,,,,,,*5F
20230628T193021903317,$IIGSA,A,1,05,07,11,13,15,16,18,20,29,30,49,71,0.95,0.53,0.79,*34
20230628T193022104809,$IIGLL,6157.99629,N,04926.37562,W,,V,N*5E
20230628T193022425721,$IIDPT,451.47,1.09,*67
20230628T193022768265,$GPGSV,5,2,18,15,07,219,41,16,13,359,41,18,11,308,41,20,73,131,47*75
20230628T193022912599,$IIZDA,,,,,,*5F
20230628T193023111567,$IIGLL,6157.99629,N,04926.37178,W,,V,N*51
20230628T193023770907,$GPGSV,5,2,18,13,29,192,46,20,73,131,44,29,39,265,40,30,26,110,42*76
20230628T193023911984,$IIGSA,A,1,05,07,09,11,13,20,29,30,49,70,71,72,0.95,0.53,0.79,*35
20230628T193023942379,$IIZDA,,,,,,*5F
20230628T193024115192,$IIGLL,6157.99629,N,04926.36794,W,,V,N*54
20230628T193024423364,$IIDPT,450.69,1.09,*6A
20230628T193024916941,$IIGSA,A,1,05,07,09,11,13,20,29,30,49,70,71,72,0.95,0.53,0.79,*35
20230628T193025121564,$IIGLL,6157.99629,N,04926.36371,W,,V,N*5B
20230628T193025219476,$IIZDA,193000.5,28,06,2023,-01,59*60
20230628T193025761526,$GPGSV,5,1,18,05,70,244,46,07,32,076,50,09,14,051,44,11,41,155,46*7A
20230628T193026122448,$IIGLL,6157.99629,N,04926.36026,W,,V,N*5A
20230628T193026223586,$IIZDA,193001.5,28,06,2023,-01,59*61
20230628T193026429399,$IIDPT,448.72,1.09,*69
20230628T193026765688,$GPGSV,5,1,18,05,70,244,46,07,32,076,50,09,14,051,44,11,41,155,46*7A
20230628T193026813682,$IIGSA,A,1,05,07,09,11,13,16,18,20,26,29,30,49,0.95,0.53,0.79,*3B
20230628T193027129659,$IIGLL,6157.99629,N,04926.35642,W,,V,N*5D
20230628T193027516969,$IIDPT,447.16,1.09,*64
20230628T193027840667,$IIGSA,A,1,05,07,09,11,13,16,20,26,29,30,49,71,0.95,0.53,0.79,*34
20230628T193027928048,$IIZDA,,,,,,*5F
20230628T193028134323,$IIGLL,6157.99629,N,04926.352,W,,V,N*5F
20230628T193028520659,$IIDPT,447.09,1.09,*6A
20230628T193028759117,$GPGSV,5,1,18,05,70,244,45,07,32,076,49,09,14,051,44,11,41,155,49*7E
20230628T193028944309,$IIZDA,,,,,,*5F
20230628T193029239995,$IIGLL,6157.99629,N,04926.34797,W,,V,N*55
20230628T193029523207,$IIDPT,447.09,1.09,*6A
20230628T193029761363,$GPGSV,5,1,18,05,70,244,46,07,32,076,51,09,14,051,46,11,41,155,50*7E
20230628T193029807016,$IIGSA,A,1,05,07,09,11,13,16,18,20,26,29,30,49,0.95,0.53,0.79,*3B
20230628T193030025087,$IIZDA,,,,,,*5F
20230628T193030245114,$IIGLL,6157.99629,N,04926.34413,W,,V,N*5A
20230628T193030526864,$IIDPT,446.9,1.09,*5B
20230628T193030769018,$GPGSV,5,3,18,26,08,329,44,29,39,265,48,30,26,110,49,49,07,122,47*7C
20230628T193030851367,$IIGSA,A,1,05,07,09,11,13,16,18,20,26,29,30,49,0.95,0.53,0.79,*3B
20230628T193031026042,$IIZDA,,,,,,*5F
20230628T193031321601,$IIGLL,6157.99629,N,04926.34048,W,,V,N*50
20230628T193031858640,$IIGSA,A,1,05,07,09,11,13,20,29,30,49,70,71,72,0.95,0.53,0.79,*35
20230628T193032158965,$IIZDA,193007.5,28,06,2023,-01,59*67
20230628T193032421510,$IIGLL,6157.99629,N,04926.33606,W,,V,N*5B
20230628T193032525011,$IIDPT,445.82,1.09,*6B
20230628T193032751898,$GPGSV,5,1,18,05,70,244,42,07,32,076,45,09,14,051,40,11,41,155,44*7C
20230628T193032863816,$IIGSA,A,1,05,07,09,11,13,20,29,30,49,70,71,72,0.95,0.53,0.79,*35
20230628T193033160862,$IIZDA,193008.5,28,06,2023,-01,59*68
20230628T193033423026,$IIGLL,6157.99629,N,04926.33242,W,,V,N*5F
20230628T193033528454,$IIDPT,445.82,1.09,*6B
20230628T193033755523,$GPGSV,5,1,18,05,70,244,44,07,32,076,47,09,14,051,42,11,41,155,46*78
20230628T193034428113,$IIGLL,6157.99629,N,04926.32858,W,,V,N*5F
20230628T193034759083,$GPGSV,5,1,18,05,70,244,44,07,32,076,47,09,14,051,42,11,41,155,46*78
20230628T193034859818,$IIGSA,A,1,05,07,09,11,13,15,16,20,29,30,49,71,0.95,0.53,0.79,*34
20230628T193034925179,$IIZDA,,,,,,*5F
20230628T193035463043,$IIGLL,6157.99629,N,04926.32435,W,,V,N*58
20230628T193035520418,$IIDPT,446.05,1.09,*67
20230628T193035767509,$GPGSV,5,2,18,13,29,192,46,18,11,308,38,20,73,131,45,29,39,265,41*7E
20230628T193035871565,$IIGSA,A,1,05,07,09,11,13,18,20,29,30,49,71,72,0.95,0.53,0.79,*3B
20230628T193036023308,$IIZDA,,,,,,*5F
20230628T193036482266,$IIGLL,6157.99629,N,04926.32051,W,,V,N*5E
20230628T193036526613,$IIDPT,442.7,1.09,*51
20230628T193036874913,$IIGSA,A,1,05,07,09,11,13,18,20,29,30,49,71,72,0.95,0.53,0.79,*3B
20230628T193037138057,$IIZDA,193012.5,28,06,2023,-01,59*63
20230628T193037484812,$IIGLL,6157.99629,N,04926.31686,W,,V,N*51
20230628T193037751021,$GPGSV,5,1,18,05,70,244,44,07,32,076,49,09,14,051,41,11,41,155,49*7A
20230628T193038172908,$IIZDA,193013.5,28,06,2023,,*42
